no,name,gubun,do,sigungu,address,주요시설 일반야영장,주요시설 자동차야영장,주요시설 글램핑,주요시설 카라반,주요시설 개인 카라반,주요시설 덤프스테이션,사이트 크기1 가로,사이트 크기2 가로,사이트 크기3 가로,사이트 크기1 세로,사이트 크기2 세로,사이트 크기3 세로,사이트 크기1 수량,사이트 크기2 수량,사이트 크기3 수량,인허가일자,화로대,부대시설,주변이용가능시설,소화기 개수,방화수 개수,방화사 개수,화재감지기 개수,테마환경,캠핑장비대여,반려동물출입,longitude,latitude
2796,백자동 캠핑장,민간,경기도,가평군,경기 가평군 북면 가화로 2575-22,0,20,0,0,0,,0,0,0,0,0,0,20,0,0,2020.8.22,개별,"전기,장작판매,온수,물놀이장,놀이터,운동시설","계곡 물놀이,낚시",20,0,0,0,"일몰명소,봄꽃여행,여름물놀이,가을단풍명소,겨울눈꽃명소,걷기길",,가능(소형견),127.463774055937,37.9646350955216
2797,도명산캠핑장,민간,충청북도,괴산군,충북 괴산군 청천면 고성4길 4-2,0,40,0,0,0,,0,0,0,0,0,0,20,20,0,2020.8.24,개별,"전기,무선인터넷,장작판매,온수,물놀이장,놀이터,운동시설,마트_편의점","계곡 물놀이,산책로,낚시",25,1,0,0,"봄꽃여행,여름물놀이,가을단풍명소,겨울눈꽃명소,걷기길",,가능(소형견),127.784161871444,36.6600268298215
2798,옥전캠핑장,민간,충청북도,제천시,충북 제천시 봉양읍 옥전길 273-25,50,28,0,0,0,,7,7,10,9,15,10,17,32,0,2020.8.25,개별,"전기,장작판매,온수,트렘폴린,물놀이장,놀이터,산책로,운동장,운동시설,마트_편의점","계곡 물놀이,산책로",25,0,0,6,"여름물놀이,걷기길","릴선,화로대",가능(소형견),128.082773241151,37.1800785774537
2799,광덕그린농원 야영장,민간,강원도,화천군,강원 화천군 사내면 검단길 213-31,0,16,0,0,0,0.0,0,0,0,0,0,0,16,0,0,2020.8.25,개별,"전기,무선인터넷,장작판매,온수,놀이터,운동시설","계곡 물놀이,산책로,운동장",0,0,0,0,가을단풍명소,,가능(소형견),127.470863761993,38.1101296088725
2800,늘솔길 캠핑장,민간,강원도,춘천시,강원 춘천시 동면 야시대로 1502,25,0,0,0,0,,0,0,0,0,0,0,0,0,0,2020.8.25,개별,"전기,무선인터넷,장작판매,운동시설",계곡 물놀이,0,0,0,0,가을단풍명소,,불가능,127.936266030392,37.8566601836276
2801,동두천 자연휴양림,자연휴양림,경기도,동두천시,경기 동두천시 탑동가산로 1 (탑동동),15,0,0,0,0,,0,0,0,0,0,0,9,6,0,2020.8.26,개별,"전기,물놀이장,놀이터,운동시설,마트_편의점","계곡 물놀이,산책로,농어촌체험시설",9,1,1,0,"봄꽃여행,여름물놀이,가을단풍명소,겨울눈꽃명소,걷기길",,가능,127.137160403747,37.8898854795311
2802,(주)수피아캠핑카라반,민간,강원도,홍천군,강원 홍천군 서면 한서로 2141-16,0,0,0,7,0,,0,0,0,0,0,0,0,0,0,2020.8.27,개별,"전기,무선인터넷,장작판매,운동시설",,0,0,0,0,스키,,가능(소형견),127.673024568861,37.6173607814125
2803,양주 패밀리 캠핑장,민간,경기도,양주시,경기 양주시 부흥로 2191-46 (삼숭동),0,18,0,0,0,,0,0,0,0,0,0,18,0,0,2020.8.31,개별,"전기,무선인터넷,장작판매,온수,트렘폴린,놀이터,운동시설,마트_편의점",산책로,15,2,0,1,걷기길,화로대,가능,127.09551085764,37.8087851627719
2804,연천리버힐캠핑장,민간,경기도,연천군,경기 연천군 미산면 숭의전로 520-21,19,0,7,0,0,,0,0,0,0,0,0,0,0,0,2020.8.31,개별,"전기,무선인터넷,장작판매,온수,트렘폴린,물놀이장,놀이터,운동시설","산책로,낚시",20,0,0,5,,"릴선,화로대",가능(소형견),126.982841972828,38.0254887811102
2805,네이처파크 자연휴양림,자연휴양림,대구광역시,달성군,대구 달성군 가창면 가창로175길 8,0,0,0,0,0,,0,0,0,0,0,0,0,0,0,2015.7.28,개별,,,0,0,0,0,,,불가능,128.63385410468,35.7878682062805
2806,욕지도 관광농원,민간,경상남도,통영시,경남 통영시 욕지면 욕지일주로 819-47,0,0,0,9,0,,0,0,0,0,0,0,0,0,0,2020.4.6,개별,,,0,0,0,0,"일몰명소,낚시",,가능,128.239693163876,34.6411018496871
2807,산타캠핑장,민간,경상북도,봉화군,경북 봉화군 소천면 풍애길 9-40,0,28,5,0,0,0.0,0,0,0,0,0,0,28,0,0,2020.4.20,개별,"전기,장작판매,온수,트렘폴린,물놀이장,놀이터,산책로,운동장,운동시설,마트_편의점","계곡 물놀이,산책로",17,0,0,0,여름물놀이,,불가능,129.053680534466,36.9264700236566
2808,고도 캠핑장,민간,경상북도,고령군,경북 고령군 대가야읍 신남로 61,2,0,0,10,0,0.0,0,0,0,0,0,0,0,0,0,2024.11.4,개별,,,0,0,0,0,,,불가능,128.265211880325,35.7121608914981
2809,캠핑소리251,민간,경기도,가평군,경기 가평군 설악면 묵안로 350,30,0,0,0,0,,0,0,0,0,0,0,26,2,2,2020.9.29,개별,"전기,무선인터넷,장작판매,온수,트렘폴린,놀이터,산책로,운동장,운동시설","계곡 물놀이,산책로,운동장,청소년체험시설,어린이놀이시설",30,1,0,0,"봄꽃여행,여름물놀이,겨울눈꽃명소,걷기길","릴선,화로대,식기",가능(소형견),127.511360442609,37.641027273919
2810,새움정,민간,경상북도,예천군,경북 예천군 보문면 옥천길 30,6,0,0,0,0,,5,7,0,6,5,0,2,1,0,2020.9.25,개별,"전기,무선인터넷,장작판매,놀이터,산책로,운동장,운동시설,마트_편의점","운동장,낚시,강/물놀이,농어촌체험시설",5,0,0,0,걷기길,,불가능,128.556192924859,36.7097442628539
2811,용인 룰루랄라 캠핑장,민간,경기도,용인시,경기 용인시 처인구 동부로729번길 97 (해곡동),16,0,0,0,0,,0,0,0,0,0,0,8,8,0,2020.9.24,개별,"전기,무선인터넷,장작판매,온수,트렘폴린,물놀이장,놀이터,운동시설,마트_편의점","계곡 물놀이,산책로",10,0,0,0,일출명소,"텐트,릴선,화로대,난방기구",가능,127.27164834769,37.1961333783278
2812,코뿔소글램핑,민간,강원도,평창군,강원 평창군 방림면 삼형제길 279-61,0,0,11,0,0,,0,0,0,0,0,0,0,0,0,2020.9.24,개별,"전기,무선인터넷,장작판매,온수,트렘폴린,물놀이장,운동시설",,0,0,0,0,"일출명소,스키,가을단풍명소,겨울눈꽃명소",,불가능,128.289071451663,37.4726114298282
2813,배티하우스,민간,경상남도,합천군,경남 합천군 쌍책면 황강옥전로 1062-50,0,0,0,0,0,0.0,0,0,0,0,0,0,0,0,0,2020.9.23,개별,,,0,0,0,0,,,불가능,128.267101313745,35.6088000198354
2814,보다더캠핑,지자체,전라북도,고창군,전북 고창군 부안면 복분자로 531,23,20,0,0,20,,0,0,0,0,0,0,18,10,15,2020.9.22,개별,"전기,무선인터넷,장작판매,온수,놀이터,산책로,운동장,운동시설,마트_편의점","산책로,농어촌체험시설",30,0,0,0,"일출명소,일몰명소,봄꽃여행,가을단풍명소,겨울눈꽃명소",,가능,126.645529571004,35.5097168961857
2815,한성연수원 야영장,민간,경상북도,문경시,경북 문경시 마성면 하내2길 55,15,0,0,0,0,,0,0,0,0,0,0,15,0,0,2020.9.18,개별,"전기,장작판매,온수,산책로,운동시설","계곡 물놀이,산책로",15,0,0,0,걷기길,,가능,128.080600431884,36.6648739143794
2816,구시포글램핑-미등록 야영장,,전라북도,고창군,전북 고창군 상하면 진암구시포로 547-23,0,0,0,0,0,0.0,0,0,0,0,0,0,0,0,0,,개별,,,0,0,0,0,,,불가능,126.435100907693,35.4436429881552
2817,젤리캠핑장,민간,경기도,안산시,경기 안산시 단원구 중우물1길 12 (대부남동),0,0,0,0,0,0.0,0,0,0,0,0,0,0,0,0,2024.4.22,개별,,,0,0,0,0,,,불가능,126.557753674636,37.2186810432583
2818,행운야영장,민간,경기도,양주시,경기 양주시 마전로212번길 79-72 (마전동),35,0,0,0,0,,0,0,0,0,0,0,35,0,0,2020.9.14,개별,"전기,장작판매,온수,물놀이장,놀이터,산책로,운동시설,마트_편의점","계곡 물놀이,산책로,운동장,어린이놀이시설",15,0,8,1,걷기길,"릴선,화로대",가능,127.058685966981,37.779479109742
2819,지리산 호수공원 오토캠핑장,지자체,전라남도,구례군,전남 구례군 산동면 산업로 1590-18,0,2211,16,0,0,,0,0,0,0,0,0,22,0,0,2021.5.24,개별,"전기,무선인터넷,장작판매,온수,놀이터","계곡 물놀이,산책로",9,0,0,0,"일출명소,일몰명소,수상레저,봄꽃여행,여름물놀이,가을단풍명소,겨울눈꽃명소,걷기길","릴선,화로대",가능(소형견),127.418467458032,35.2807797333282
2820,산청펫글램핑,민간,경상남도,산청군,경남 산청군 금서면 화계오봉로 349-35,0,0,6,0,0,,0,0,0,0,0,0,0,0,0,2020.9.6,개별,"전기,무선인터넷,장작판매,온수,물놀이장,놀이터,산책로,운동시설,마트_편의점","계곡 물놀이,산책로,운동장",6,2,2,6,"일출명소,일몰명소,여름물놀이",,가능,127.777948382291,35.4387977510879
2821,트리하우스계곡야영장,민간,강원도,홍천군,강원 홍천군 내촌면 아홉사리로 1740,20,0,0,0,0,,0,0,0,0,0,0,20,0,0,2020.9.2,개별,"전기,무선인터넷,장작판매,온수",계곡 물놀이,0,0,0,0,"여름물놀이,가을단풍명소",,가능(소형견),128.145495112929,37.8213815579366
2822,아우노펠리스,민간,경상북도,영천시,경북 영천시 상신기길 150 (언하동),0,0,27,0,0,,0,0,0,0,0,0,0,0,0,2020.9.2,개별,"전기,무선인터넷,온수,물놀이장,놀이터,산책로,운동장,운동시설,마트_편의점","계곡 물놀이,낚시",27,0,0,27,여름물놀이,,가능,128.956447233555,36.00350293729
2823,화순 고인돌 오토캠핑장,,전라남도,화순군,전남 화순군 도곡면 고인돌1로 139,0,0,0,0,0,,0,0,0,0,0,0,0,0,0,2020.9.1,개별,,,0,0,0,0,,,불가능,126.912786420858,34.9864633911982
2824,문암진1리 번영회(백도해변야영장),지자체,강원도,고성군,강원 고성군 죽왕면 문암항길 133,0,25,0,0,0,0.0,0,0,0,0,0,0,26,0,0,2023.7.13,개별,"전기,놀이터",해수욕,0,0,0,0,"일출명소,수상레저,여름물놀이",,가능,128.545914207408,38.3016193817254
2825,노을진 캠핑장,지자체,인천광역시,서구,인천 서구 정서진로 500 (오류동),0,96,0,15,0,0.0,0,0,0,0,0,0,96,0,0,2020.4.3,개별,"전기,장작판매,온수,놀이터,산책로,운동장,운동시설,마트_편의점","산책로,운동장,농어촌체험시설",95,0,2,15,"일몰명소,걷기길",릴선,불가능,126.657130748411,37.5697718419022
2826,몽고몽고글램핑,민간,강원도,홍천군,강원 홍천군 남면 남노일로 1162,1,0,14,0,0,,0,0,0,0,0,0,0,0,0,2020.10.5,개별,"전기,무선인터넷,장작판매,온수,트렘폴린,물놀이장,운동시설",어린이놀이시설,18,14,2,16,"봄꽃여행,여름물놀이",,가능,127.756172853775,37.6801882028827
2827,성보촌 캠핑장,민간,경상북도,문경시,경북 문경시 호계면 상무로 377,20,18,0,0,0,,0,0,0,0,0,0,18,10,10,2020.10.5,개별,"전기,무선인터넷,장작판매,온수,트렘폴린,물놀이장,놀이터,산책로,운동장,운동시설,마트_편의점","계곡 물놀이,산책로",20,3,3,0,여름물놀이,식기,가능,128.194577805531,36.6459671310377
2828,바람부리 별밤 캠핑장,민간,강원도,강릉시,강원 강릉시 왕산면 바람부리길 69,21,0,0,0,0,0.0,5,6,0,6,8,0,4,17,0,2020.10.12,불가,"전기,무선인터넷,장작판매,온수,산책로","계곡 물놀이,산책로,낚시",15,3,3,3,"여름물놀이,가을단풍명소,겨울눈꽃명소",,가능(소형견),128.720966168099,37.6025064424036
2829,더 노은로 캠핑장,민간,대전광역시,유성구,대전 유성구 노은서로 19 (노은동),0,0,0,0,0,,0,0,0,0,0,0,0,0,0,2020.10.13,개별,,,0,0,0,0,,,불가능,127.31563401134,36.363072330061
2830,나주 죽산보 오토캠핑장,지자체,전라남도,나주시,전남 나주시 다시면 죽산리 123-3 ,0,41,0,0,0,0.0,5,0,0,5,0,0,41,0,0,2020.10.14,개별,"전기,장작판매,온수,놀이터,마트_편의점","낚시,강/물놀이,농어촌체험시설",20,3,3,7,"일출명소,일몰명소,낚시,봄꽃여행",난방기구,가능,126.627981227275,34.9705951939908
2831,청풍호반 오토캠핑장,민간,충청북도,제천시,충북 제천시 청풍면 용곡길211번길 2,0,20,0,0,0,,0,0,0,0,0,0,12,6,2,2020.10.19,개별,"전기,무선인터넷,장작판매,온수,물놀이장,놀이터,운동시설",,20,0,0,0,"일출명소,일몰명소,낚시,가을단풍명소,겨울눈꽃명소,걷기길","릴선,화로대,난방기구,식기",불가능,128.118566893978,36.9836790140338
2832,우리집 야영장,민간,대구광역시,군위군,대구 군위군 소보면 서금로 84,0,0,0,0,0,,0,0,0,0,0,0,0,0,0,2020.10.19,개별,,,0,0,0,0,,,불가능,128.499235038065,36.2320402072373
2833,지리산생태체험단지,지자체,경상남도,함양군,경남 함양군 마천면 가미동길 67,0,9,0,0,0,,0,0,0,0,0,0,9,0,0,2020.10.28,개별,"전기,온수,놀이터","계곡 물놀이,산책로,해수욕",6,0,0,0,"봄꽃여행,여름물놀이,가을단풍명소,겨울눈꽃명소",,가능(소형견),127.662564268834,35.3803673115524
2834,월등도 캠핑장,민간,경상남도,사천시,경남 사천시 서포면 월등도길 36,0,30,0,0,0,,0,0,0,0,0,0,0,0,0,2020.10.28,개별,"전기,온수,트렘폴린,물놀이장",낚시,2,0,0,0,,,가능(소형견),127.995753095077,34.9739587280041
2836,인천송도국제캠핑장,지자체,인천광역시,연수구,인천 연수구 지식기반로 60 (송도동),0,0,0,0,0,,0,0,0,0,0,0,0,0,0,2020.6.30,개별,,,0,0,0,0,,,불가능,126.645876400098,37.3615825200502
2837,가평 워크샵 캠핑장 씨브이,,경기도,가평군,경기 가평군 가평읍 북한강변로 274,0,0,0,0,0,,0,0,0,0,0,0,0,0,0,2017.4.21,개별,,,0,0,0,0,,,불가능,127.535669239682,37.7531068735272
2838,제천카라반 더그린,민간,충청북도,제천시,충북 제천시 봉양읍 박달로 256-21,6,32,0,14,0,,0,0,0,0,0,0,32,0,0,2020.11.6,개별,"전기,무선인터넷,장작판매,온수,물놀이장,놀이터,산책로,운동장,운동시설,마트_편의점","계곡 물놀이,산책로,수상레저,낚시",25,0,0,14,"봄꽃여행,여름물놀이,가을단풍명소,겨울눈꽃명소,걷기길",,가능,128.059050751856,37.1443439216622
2839,더하루캠핑파크,민간,경상남도,창원시,경남 창원시 마산합포구 진전면 일암1길 74,25,0,3,4,0,,0,0,0,0,0,0,0,0,0,2018.10.22,개별,"전기,무선인터넷,장작판매,온수,트렘폴린,물놀이장,산책로,운동장,마트_편의점","계곡 물놀이,산책로,운동장,낚시,청소년체험시설,농어촌체험시설",30,10,10,20,"수상레저,액티비티,여름물놀이,걷기길",,불가능,128.378556625252,35.1252246246295
2840,강화카라반해변,민간,인천광역시,강화군,인천 강화군 화도면 해안남로 2669,0,0,0,7,0,,0,0,0,0,0,0,0,0,0,2020.11.17,개별,"전기,무선인터넷,장작판매,온수,놀이터,마트_편의점",,7,7,7,7,"일몰명소,가을단풍명소,걷기길",,불가능,126.374032962621,37.6358650362053
2841,유곡면 농촌체험랜드,지자체,경상남도,의령군,경남 의령군 유곡면 청정로 2278,0,30,0,0,0,0.0,0,0,0,0,0,0,0,0,0,2020.11.13,개별,"전기,장작판매,온수,트렘폴린,물놀이장,운동시설,마트_편의점",,0,0,0,0,,,가능(소형견),128.317917887447,35.4322562710798
2842,우리동네 캠핑장,민간,경상북도,김천시,경북 김천시 아포읍 대성지1길 165,25,0,0,0,0,,8,0,0,5,0,0,25,21,0,2020.1.17,개별,"전기,무선인터넷,장작판매,온수,트렘폴린,물놀이장,놀이터,마트_편의점","계곡 물놀이,산책로,수영장,어린이놀이시설",16,0,0,0,"봄꽃여행,가을단풍명소,겨울눈꽃명소,걷기길",화로대,가능,128.275335864795,36.1072837036342
2843,약사밤나무집 캠핑장,민간,경기도,포천시,경기 포천시 이동면 금강로 6145-15,0,0,0,0,0,,0,0,0,0,0,0,0,0,0,2020.11.30,개별,,,0,0,0,0,,,불가능,127.389688313242,38.077018071973
2844,수산하늘풍경,민간,강원도,인제군,강원 인제군 남면 무학길 34,0,22,0,0,0,0.0,0,0,0,0,0,0,10,12,0,2020.11.20,개별,"전기,무선인터넷,장작판매,온수,산책로",계곡 물놀이,10,0,0,0,여름물놀이,"릴선,화로대,식기",가능(소형견),128.018762175067,37.9728875764424
2845,우니메이카 캠핑장 양양점,민간,강원도,양양군,강원 양양군 현북면 법수치길 1029,16,0,0,0,0,,0,0,0,0,0,0,10,3,3,2020.11.19,개별,"전기,무선인터넷,장작판매,온수,운동시설",계곡 물놀이,0,0,0,0,여름물놀이,,가능,128.61544723893,37.9048763958418
2846,시골학교캠핑장,민간,충청북도,제천시,충북 제천시 봉양읍 제원로 653,43,0,0,0,0,,0,0,0,0,0,0,5,38,0,2020.11.19,개별,"전기,무선인터넷,장작판매,온수,트렘폴린,물놀이장,놀이터,산책로,운동시설,마트_편의점","계곡 물놀이,산책로",40,4,4,0,"여름물놀이,가을단풍명소,겨울눈꽃명소,걷기길",,가능(소형견),128.105560124724,37.1738014537868
2847,The하루만캠핑장,민간,충청북도,괴산군,충북 괴산군 청천면 괴산로상신5길 6-10,0,0,0,0,0,0.0,0,0,0,0,0,0,0,0,0,2020.11.18,개별,,,0,0,0,0,,,불가능,127.782391606144,36.6345038530209
2848,청포대오토캠핑장,지자체,충청남도,태안군,충남 태안군 남면 청포대길 125,0,21,0,0,0,,0,0,0,0,0,0,21,0,0,2020.11.18,개별,"전기,무선인터넷,장작판매,온수,놀이터,운동시설","산책로,운동장,수상레저,낚시,해수욕,청소년체험시설",21,0,0,0,"일몰명소,수상레저,낚시,걷기길",텐트,불가능,,
2849,비손관광농원 야영장,민간,경상북도,포항시,경북 포항시 북구 청하면 비학로 1889-157,13,0,0,0,0,,0,0,0,0,0,0,13,0,0,2020.11.17,개별,"전기,장작판매,온수,물놀이장,놀이터,산책로,운동시설,마트_편의점","수상레저,낚시,해수욕",15,0,2,5,"일출명소,일몰명소,봄꽃여행,여름물놀이,걷기길",,가능(소형견),129.317351730531,36.1976050292886
2851,용인 둥지골 캠핑장,민간,경기도,용인시,경기 용인시 처인구 원삼면 후평로185번길 39,30,0,0,0,0,,0,0,0,0,0,0,30,0,0,2020.11.12,개별,"전기,무선인터넷,장작판매,놀이터,운동시설",산책로,15,0,0,1,일몰명소,,불가능,127.328556895508,37.1362166054304
2852,빙계얼음골 야영장,지자체,경상북도,의성군,경북 의성군 가음면 빙계계곡길 51,0,33,0,12,16,0.0,0,0,0,0,0,0,28,15,6,2020.11.11,개별,"전기,무선인터넷,장작판매,온수,놀이터,운동시설,마트_편의점","계곡 물놀이,산책로",36,0,0,16,걷기길,,가능,128.750551315478,36.2279812510739
2853,연인산 다목적 캠핑장,지자체,경기도,가평군,경기 가평군 북면 백둔로 441,0,36,0,14,0,,0,0,0,0,0,0,36,0,0,2020.11.10,개별,"전기,무선인터넷,온수,놀이터,산책로,운동장","계곡 물놀이,산책로,운동장",39,4,4,3,"봄꽃여행,여름물놀이,가을단풍명소,겨울눈꽃명소,걷기길",,가능,127.460367206046,37.9013297619162
2854,아만다키즈글램핑,민간,경기도,가평군,경기 가평군 조종면 와곡길 120,0,0,0,0,0,,0,0,0,0,0,0,0,0,0,2020.11.10,개별,,,0,0,0,0,,,불가능,127.354434457525,37.8691573334768
2855,캠프 인디오,민간,강원도,홍천군,강원 홍천군 동면 후동길128번길 53,20,0,0,0,0,,0,0,0,0,0,0,0,0,0,2020.11.9,개별,"전기,무선인터넷,장작판매,온수,운동시설",,0,0,0,0,,,가능(소형견),127.930261805358,37.6478264121805
2856,함양라온캠핑장,민간,경상남도,함양군,경남 함양군 서하면 육십령로 2991,0,24,0,0,0,,0,0,0,0,0,0,10,6,8,2020.11.9,개별,"전기,무선인터넷,장작판매,온수,트렘폴린,물놀이장,놀이터,산책로,운동시설,마트_편의점","산책로,운동장,농어촌체험시설,어린이놀이시설",24,0,3,0,"일출명소,겨울눈꽃명소",,불가능,127.774416465428,35.6259803683093
2857,조봉야영장,민간,강원도,양양군,강원 양양군 서면 구룡령로 1610,12,0,0,0,0,,0,0,0,0,0,0,12,0,0,2020.11.5,개별,전기,계곡 물놀이,0,0,0,0,"여름물놀이,가을단풍명소",,불가능,128.503595082675,37.9496964418365
2858,해울림영농조합법인,민간,전라남도,고흥군,전남 고흥군 금산면 평산길 94,6,0,0,0,0,,0,0,0,0,0,0,6,0,0,2020.11.5,개별,"전기,온수,트렘폴린,놀이터,운동장,마트_편의점",낚시,4,0,0,0,"일출명소,일몰명소",릴선,불가능,127.17778070247,34.4907451340016
2859,가야산백운오토캠핑장,민간,경상북도,성주군,경북 성주군 수륜면 백운2길 51-32,0,0,0,0,0,,0,0,0,0,0,0,0,0,0,2018.10.10,개별,,,0,0,0,0,,,불가능,128.151769853881,35.795301741543
2860,골드펫리조트,,경기도,용인시,"경기 용인시 기흥구 기흥단지로 406 (고매동, 골드훼미리콘도)",0,0,0,0,0,,0,0,0,0,0,0,0,0,0,2016.2.1,개별,,,0,0,0,0,,,불가능,127.13873812633,37.2210183770953
2861,무주 더 스위트 글램핑,민간,전라북도,무주군,전북 무주군 무풍면 오두재로 96,0,0,12,0,0,,0,0,0,0,0,0,0,0,0,2018.1.8,개별,"전기,무선인터넷,장작판매,온수","계곡 물놀이,산책로,낚시,농어촌체험시설",0,0,0,0,,,가능(소형견),127.830333031352,35.8901981838717
2862,퀘렌시아,민간,경상북도,울진군,경북 울진군 온정면 삼덕로 799,0,0,0,0,0,0.0,0,0,0,0,0,0,0,0,0,2018.11.7,개별,,,0,0,0,0,,,불가능,129.380379728249,36.69203040867
2863,강화도 크로바 캠핑장,민간,인천광역시,강화군,인천 강화군 길상면 해안남로 497-4,10,0,0,0,0,,0,0,0,0,0,0,3,7,0,2020.12.17,개별,"전기,무선인터넷,장작판매,온수,놀이터,운동시설","산책로,청소년체험시설",10,1,1,4,"일몰명소,걷기길",화로대,가능(소형견),126.50930752416,37.5968392062275
2864,그레이스 글램핑,민간,강원도,춘천시,강원 춘천시 남산면 북한강변길 888,0,0,7,0,0,,0,0,0,0,0,0,0,0,0,2020.10.26,개별,"전기,무선인터넷,장작판매,온수,놀이터,산책로,운동장,운동시설,마트_편의점","산책로,수상레저",8,2,2,8,"수상레저,스키",,가능,127.609733811364,37.8279520573164
2865,러빙유 카라반 캠핑장,민간,충청남도,당진시,충남 당진시 고대면 삼선산수목원길 50,1,5,0,6,0,,0,0,0,0,0,0,0,0,0,,개별,"전기,무선인터넷,장작판매,온수,산책로",,8,1,0,6,,화로대,불가능,126.583908144451,36.9106815302767
2866,참살이 가족 캠핑장,민간,경기도,안성시,경기 안성시 보개면 신장길 184,28,0,0,0,0,,7,8,0,8,9,0,27,5,0,2020.12.8,개별,"전기,무선인터넷,장작판매,온수,놀이터,운동시설",,28,1,0,1,"일출명소,걷기길","릴선,화로대",가능(소형견),127.272618465332,37.04601508089
2867,달빛야영장,민간,경기도,양평군,경기 양평군 단월면 윗고북길 56,0,0,0,0,0,,0,0,0,0,0,0,0,0,0,2020.12.4,개별,,,0,0,0,0,,,불가능,127.583263432455,37.5887410555091
2868,행복한 체험 캠핑장,민간,경기도,김포시,경기 김포시 금포로 1196 (운양동),0,0,10,0,0,,0,0,0,0,0,0,10,0,0,2020.5.22,공동취사장,"전기,무선인터넷,운동시설",,5,0,0,10,,,불가능,126.700999115244,37.651236533579
2869,캠프1530,민간,경상북도,청도군,경북 청도군 운문면 운북로 235,0,40,0,0,0,,0,0,0,0,0,0,21,6,3,2020.12.4,개별,"전기,무선인터넷,장작판매,온수,물놀이장,놀이터,운동시설","계곡 물놀이,산책로,강/물놀이",20,0,0,0,"여름물놀이,가을단풍명소",릴선,가능(소형견),128.965207758462,35.7881771465843
2870,다둥이네캠핑장,,경기도,가평군,경기 가평군 북면 화악산로 636,0,0,0,0,0,,0,0,0,0,0,0,0,0,0,2020.12.4,개별,,,0,0,0,0,,,불가능,127.56323185784,37.9347012010507
2871,하기숲 가족캠핑장,지자체,대전광역시,유성구,대전광역시 유성구 하기동 259 ,0,14,0,0,0,,0,0,0,0,0,0,14,0,0,2020.12.7,개별,"전기,온수,물놀이장,놀이터,마트_편의점",산책로,14,0,0,0,걷기길,,불가능,127.332316806943,36.3932359181107
2872,힐링오름캠핑장,민간,경상북도,고령군,경북 고령군 덕곡면 덕운로 1081,0,15,0,0,0,,0,0,0,0,0,0,2,3,0,2020.12.9,개별,"전기,무선인터넷,장작판매,온수",산책로,15,0,0,0,,,가능,128.191003352108,35.8000759688546
2873,글로리아 야영장,민간,충청남도,홍성군,충남 홍성군 서부면 서부서길554번길 58,0,10,0,0,0,,0,0,0,0,0,0,10,0,0,2020.12.10,개별,"전기,장작판매,온수,물놀이장,운동시설","산책로,수상레저,해수욕,청소년체험시설",10,0,0,0,"일몰명소,여름물놀이",,가능,126.468382913635,36.5801431673251
2874,채계산 구름 관광농원,,전라북도,순창군,전북 순창군 적성면 마계길 22-8,0,0,0,0,0,,0,0,0,0,0,0,0,0,0,2020.12.25,개별,,,0,0,0,0,,,불가능,127.235937185512,35.4098065204864
2875,신두리정원오토캠핑야영장,민간,충청남도,태안군,충남 태안군 원북면 신두로 690-57,0,30,20,0,0,,0,0,0,0,0,0,30,0,0,2020.12.16,개별,"전기,장작판매,온수,운동시설",해수욕,30,1,0,0,"일몰명소,수상레저,걷기길",,불가능,126.18945264254,36.8360484674467
2876,무지개캠핑장,민간,경기도,파주시,경기 파주시 광탄면 부흥로 206-9,25,17,0,0,0,,0,0,0,0,0,0,17,0,0,2020.12.22,개별,"전기,무선인터넷,장작판매,온수,트렘폴린,물놀이장,놀이터,운동시설",산책로,17,0,0,0,,,가능,126.870302473884,37.8016462623776
2877,제주 산내들 여행사,,제주특별자치도,서귀포시,제주특별자치도 서귀포시 남원읍 남조로 861-83,0,0,0,0,0,,0,0,0,0,0,0,0,0,0,2020.12.31,개별,,,0,0,0,0,,,불가능,126.696040812026,33.3431403314307
2878,담터 금학캠핑장,민간,경기도,포천시,경기 포천시 관인면 담터길 339,0,64,0,0,0,,0,0,0,0,0,0,0,0,0,2021.1.5,개별,"전기,무선인터넷,장작판매,온수,운동시설",계곡 물놀이,0,0,0,0,여름물놀이,,가능(소형견),127.189417285761,38.1609345691381
2879,은지가족야영장,민간,경기도,고양시,경기 고양시 덕양구 흥도로 281-1 (도내동),0,16,0,0,0,0.0,0,0,0,0,0,0,16,0,0,2021.1.8,개별,"전기,무선인터넷,장작판매,온수,운동시설",,0,0,0,0,,,불가능,126.857206490705,37.6311256242969
2880,명봉산솔밭관광농원오토캠핑장,민간,강원도,원주시,강원 원주시 흥업면 승안동길 242-56,0,11,0,0,0,,0,0,0,0,0,0,0,0,0,2021.1.11,개별,"전기,온수,마트_편의점","계곡 물놀이,산책로,청소년체험시설",15,1,0,0,"봄꽃여행,가을단풍명소,겨울눈꽃명소,걷기길","릴선,화로대,난방기구",가능(소형견),127.873627987389,37.3051246810644
2881,선바위야영장,민간,강원도,인제군,강원 인제군 북면 미시령로 1796,0,38,0,0,0,0.0,0,0,0,0,0,0,0,0,0,2021.2.17,개별,"전기,무선인터넷,장작판매,운동시설",계곡 물놀이,0,0,0,0,"여름물놀이,가을단풍명소",,가능(소형견),128.402978343323,38.2208552115964
2882,벨하우스 관광농원,민간,경기도,남양주시,경기 남양주시 수동면 지둔로445번길 98,0,52,9,0,0,,0,0,0,0,0,0,0,0,0,2021.1.15,개별,"전기,무선인터넷,장작판매,온수,트렘폴린,물놀이장,운동시설,마트_편의점",계곡 물놀이,0,0,0,0,여름물놀이,,불가능,127.297191385763,37.7275960435335
2883,탄도호캠핑장,민간,경기도,화성시,경기 화성시 송산면 송산서로420번길 102-20,0,23,0,0,0,,0,0,0,0,0,0,23,0,0,2021.1.18,개별,"전기,무선인터넷,장작판매,온수,운동시설",,0,0,0,0,일몰명소,,불가능,126.667377700146,37.2095117892638
2884,파인트리캠핑장,민간,강원도,정선군,강원 정선군 남면 광락로 349-30,0,70,0,0,0,,0,0,0,0,0,0,0,0,0,2021.1.20,개별,"전기,무선인터넷,장작판매,온수,트렘폴린,물놀이장",계곡 물놀이,0,0,0,0,여름물놀이,,가능(소형견),128.693720520755,37.3161381592256
2885,광산구 국민여가 친환경 오토캠핑장,지자체,광주광역시,광산구,광주 광산구 탑동길 345 (지산동),0,0,0,28,0,,0,0,0,0,0,0,0,0,0,2021.1.20,개별,"전기,장작판매,온수,놀이터,운동장,운동시설,마트_편의점",산책로,28,0,0,28,걷기길,,가능,126.73038204186,35.1953233927009
2886,도둑골 신규,민간,경상남도,하동군,경남 하동군 옥종면 호계천로 202,32,0,0,0,0,,0,0,0,0,0,0,32,0,0,2022.11.23,개별,"전기,무선인터넷,장작판매,온수,트렘폴린,물놀이장,운동시설,마트_편의점","계곡 물놀이,산책로",20,0,0,0,여름물놀이,,가능,127.85823562211,35.195029521006
2887,무릉관광농원,민간,경상북도,경주시,경북 경주시 강동면 호국로 3150-56,0,25,0,0,0,,0,0,0,0,0,0,22,3,0,2021.1.21,개별,"전기,무선인터넷,장작판매,온수,트렘폴린,물놀이장,놀이터,운동시설","계곡 물놀이,산책로,어린이놀이시설",15,0,0,0,"봄꽃여행,여름물놀이,가을단풍명소,걷기길",,가능,129.246596320581,35.9853686522406
2888,솔밭캠핑장,민간,경상북도,포항시,경북 포항시 북구 송라면 해안로 2952,10,0,0,0,0,,8_5,3,0,6_5,6,0,4,6,0,2021.1.22,개별,"전기,무선인터넷,온수,물놀이장","산책로,낚시,해수욕",5,0,0,0,"수상레저,낚시,여름물놀이",,불가능,129.377809030531,36.2423933267371
2889,포시즌오토캠핑장,민간,충청남도,예산군,충남 예산군 덕산면 온천단지3로 10-17,7,0,0,0,0,,0,0,0,0,0,0,7,0,0,2021.1.22,개별,"전기,무선인터넷,장작판매,온수,운동시설",산책로,7,0,0,0,걷기길,,가능(소형견),126.658979063851,36.6950928959046
2890,바다야 놀자,민간,충청남도,보령시,충청남도 보령시 천북면 학성리 242-24,0,7,0,0,0,,0,0,0,0,0,0,6,1,0,2021.1.22,개별,"전기,무선인터넷,온수,물놀이장,놀이터","산책로,수상레저,낚시,해수욕",7,0,0,0,"일몰명소,수상레저,여름물놀이",,가능,126.497050121316,36.4356881992386
2891,평창하늘캠핑장,민간,강원도,평창군,강원특별자치도 평창군 봉평면 흥정계곡4길 71-8,0,22,0,0,0,0.0,4,0,0,6,0,0,20,0,0,2021.1.22,개별,"전기,무선인터넷,장작판매,온수,운동시설",계곡 물놀이,0,0,0,0,"여름물놀이,가을단풍명소",,가능(소형견),128.31559890863,37.6510309261089
2892,남작골 농촌체험휴양마을 야영장,민간,경상북도,성주군,경북 성주군 수륜면 보월로 8-23,20,0,0,0,0,,0,0,0,0,0,0,20,0,0,2021.1.25,개별,"전기,무선인터넷,온수,트렘폴린,물놀이장,놀이터,운동장,운동시설,마트_편의점","계곡 물놀이,산책로,어린이놀이시설",20,0,0,0,여름물놀이,,가능,128.270496767448,35.8038162071122
2893,우니메이카 고령점,민간,경상북도,고령군,경북 고령군 덕곡면 백리로 391-16,0,8,0,0,0,,0,0,0,0,0,0,5,3,0,2021.2.22,개별,"전기,무선인터넷,장작판매,온수,놀이터,운동시설","계곡 물놀이,산책로",8,1,0,0,여름물놀이,릴선,가능,128.194487395439,35.8124628289091
2894,수입리캠핑장,민간,경기도,양평군,경기 양평군 서종면 화서로246번길 22-6,8,9,0,0,0,,0,0,0,0,0,0,3,6,0,2021.2.9,개별,"전기,무선인터넷,장작판매,온수,운동시설",계곡 물놀이,2,0,0,0,"봄꽃여행,여름물놀이,가을단풍명소",,가능,127.399049247742,37.6402855582805
2895,슬로우위켄드,민간,전라남도,장성군,전남 장성군 황룡면 구대해길 3-12,3,0,10,4,0,,0,0,0,0,0,0,0,0,0,2021.2.8,개별,"전기,무선인터넷,장작판매,온수,트렘폴린,물놀이장,산책로,운동시설","산책로,운동장,낚시,강/물놀이",14,1,1,14,"일몰명소,여름물놀이,가을단풍명소,겨울눈꽃명소",화로대,가능,126.751802005767,35.2636471704671
2896,보개산 야영장,민간,경기도,연천군,경기 연천군 신서면 동내로 980,0,6,0,0,0,,0,0,0,0,0,0,0,0,0,2021.2.3,개별,"전기,운동시설",계곡 물놀이,0,0,0,0,여름물놀이,,가능,127.136082640994,38.1293579171388
2897,마음껏 남해,지자체,경상남도,남해군,경남 남해군 창선면 연곡로 13,0,18,0,0,0,0.0,0,0,0,0,0,0,18,0,0,2023.4.7,개별,"전기,무선인터넷,온수,물놀이장,놀이터,마트_편의점","수상레저,낚시,해수욕",20,0,0,0,여름물놀이,,가능,128.040732778862,34.8702017739126
2898,바람숲야영장,민간,대구광역시,동구,대구 동구 팔공로230길 103 (진인동),0,7,0,0,0,,0,0,0,0,0,0,7,0,0,2021.2.8,개별,"전기,장작판매,온수,놀이터,운동시설","계곡 물놀이,산책로",4,0,0,0,"여름물놀이,걷기길",,가능(소형견),128.713254697034,35.9503920458064
2899,별바라기 캠핑 펜션,민간,충청남도,논산시,충남 논산시 벌곡면 수락로 669-54,0,38,0,0,0,,0,0,0,0,0,0,12,26,0,2021.2.10,개별,"전기,장작판매,온수,트렘폴린,놀이터,운동시설","계곡 물놀이,산책로",20,0,0,0,걷기길,,가능,127.291442458105,36.1971827203994
2900,산정호수 돌고래 캠핑장,민간,경기도,포천시,경기 포천시 영북면 산정호수로 510-1,0,43,0,0,0,,0,0,0,0,0,0,12,0,0,2021.2.10,개별,"전기,무선인터넷,장작판매,트렘폴린,물놀이장,운동시설",계곡 물놀이,0,0,0,0,"여름물놀이,가을단풍명소",,가능(소형견),127.318473084633,38.0592740415755
2901,채움카라반리조트,민간,경기도,가평군,경기도 가평군 조종면 운악리 542-14 ,0,0,0,39,0,,0,0,0,0,0,0,0,0,0,2021.2.10,개별,"전기,무선인터넷,장작판매,온수,물놀이장,운동시설",계곡 물놀이,0,0,0,0,"여름물놀이,가을단풍명소",,가능,127.353078162701,37.8884476432738
2902,숲내음카라반캠핑장,민간,전라북도,완주군,전북 완주군 상관면 죽림편백길 143-5,0,0,2,3,0,,0,0,0,0,0,0,0,0,0,2021.2.11,개별,"전기,무선인터넷,온수,트렘폴린,놀이터,운동시설",산책로,5,0,0,5,"여름물놀이,걷기길",,불가능,127.208030111768,35.7419120307904
2903,백제캠핑장,민간,전라북도,익산시,전북 익산시 금마면 도천길 131-20,0,46,0,0,0,,8,8,0,8,16,0,28,18,0,2021.2.12,개별,"전기,무선인터넷,장작판매,온수,트렘폴린,물놀이장,놀이터,산책로,운동장,운동시설,마트_편의점","산책로,수영장,농어촌체험시설,어린이놀이시설",23,0,0,0,걷기길,,가능(소형견),127.051549061431,36.0125014478381
2904,갈천힐링캠프,민간,강원도,양양군,강원 양양군 서면 구룡령로 1103-45,0,15,0,0,0,,0,0,0,0,0,0,15,0,0,2021.2.15,개별,"전기,무선인터넷,온수",계곡 물놀이,0,0,0,0,"여름물놀이,가을단풍명소",,가능,128.505343873329,37.9070316895317
2905,쭌카라반 캠핑장,민간,강원도,고성군,강원 고성군 토성면 화원길 13,0,12,0,8,0,,0,0,0,0,0,0,0,0,0,2021.2.17,개별,"전기,무선인터넷,장작판매,온수,물놀이장,운동시설",해수욕,0,0,0,0,,,가능,128.546648703556,38.2845544393156
2906,포게더 카라반 지조개발,민간,경상남도,거제시,경남 거제시 사등면 덕호해안길 147-1,0,0,0,18,0,,0,0,0,0,0,0,0,0,0,2021.2.17,개별,"전기,무선인터넷,온수,물놀이장,놀이터,운동시설","산책로,수상레저,낚시,해수욕",18,0,0,18,"일출명소,수상레저,낚시,액티비티,여름물놀이",,불가능,128.47277896861,34.8729838384727
2907,매물도야영장,민간,경상남도,통영시,경남 통영시 한산면 당금길 50-9,20,0,0,0,0,,0,0,0,0,0,0,0,0,0,2021.2.24,개별,"산책로,마트_편의점","산책로,낚시",6,0,0,0,"일출명소,일몰명소,낚시,봄꽃여행,걷기길",,불가능,128.576480081038,34.6472024301104
2908,신화스위트리호스텔,,인천광역시,중구,인천 중구 왕산로 70 (을왕동),0,0,0,0,0,,0,0,0,0,0,0,0,0,0,2021.2.24,개별,,,0,0,0,0,,,불가능,126.366839353102,37.4633684446005
2909,블루문 오토캠핑,민간,세종특별자치시,연서면,세종특별자치시 연서면 기와말1길 20,0,17,0,12,0,,0,0,0,0,0,0,11,6,0,2021.2.25,개별,"전기,무선인터넷,온수,트렘폴린,물놀이장,운동시설,마트_편의점",산책로,20,0,0,12,"액티비티,여름물놀이",,가능,127.249840400054,36.5585964473542
2910,글램핑로망,민간,대구광역시,달성군,대구 달성군 옥포읍 옥포로111길 85-6,0,0,8,0,0,,0,0,0,0,0,0,0,0,0,2021.3.31,개별,"전기,무선인터넷,장작판매,온수,놀이터,운동시설","계곡 물놀이,산책로",8,0,0,8,"가을단풍명소,걷기길",,가능,128.494999014155,35.7413410377602
2911,(주)젠하이더웨이 트로컬하이드어웨이,민간,제주특별자치도,서귀포시,제주특별자치도 서귀포시 대정읍 형제해안로 284,0,0,0,0,0,,0,0,0,0,0,0,0,0,0,2021.3.2,개별,,,0,0,0,0,,,불가능,126.291276107974,33.2092381394588
2912,주전패밀리캠핑장,민간,울산광역시,동구,울산 동구 주전해안길 300 (주전동),53,0,0,0,0,,0,0,0,0,0,0,1,1,1,2021.3.3,개별,"전기,무선인터넷,장작판매,온수,물놀이장,운동시설","산책로,수상레저,낚시,해수욕",30,0,0,0,"일출명소,수상레저,낚시,여름물놀이",,가능,129.455248087822,35.5517652286522
2913,안림딸기마을 캠핑장,민간,경상북도,고령군,경북 고령군 쌍림면 안림천길 19-6,0,50,0,0,0,,0,0,0,0,0,0,50,0,0,2021.3.8,개별,"전기,무선인터넷,장작판매,온수,트렘폴린,물놀이장,놀이터,산책로,운동시설,마트_편의점","계곡 물놀이,산책로,낚시",25,0,0,0,"여름물놀이,가을단풍명소,걷기길",,가능(소형견),128.259712465205,35.6924394950039
2914,보문카라반파크,민간,경상북도,경주시,경북 경주시 경감로 466-311 (천군동),3,0,0,16,0,,9,0,0,6_5,0,0,3,0,0,2021.3.8,개별,"전기,무선인터넷,장작판매,온수,물놀이장,놀이터,운동시설,마트_편의점",산책로,19,0,0,17,"여름물놀이,가을단풍명소",,불가능,129.270512444204,35.8144438151709
2915,와룡천 캠핑장,지자체,강원도,영월군,강원 영월군 남면 송정길 53,0,35,0,0,0,,0,0,0,0,0,0,0,0,0,2021.3.9,개별,"무선인터넷,장작판매,온수,운동시설",어린이놀이시설,0,0,0,0,여름물놀이,,가능,128.411429372934,37.1895840132711
2916,돌담 캠핑&가든,민간,인천광역시,강화군,인천 강화군 삼산면 삼산북로 397-1,0,0,10,0,0,,0,0,0,0,0,0,0,0,0,2021.3.10,개별,"전기,무선인터넷,장작판매,온수,물놀이장,운동시설",,0,0,0,0,,,가능(소형견),126.328232753399,37.70120264224
2917,케이블카파크랜드 오토캠핑장,지자체,경상남도,통영시,경남 통영시 발개로 172-24 (도남동),21,0,0,0,0,0.0,0,0,0,0,0,0,21,0,0,2021.3.12,개별,"전기,무선인터넷,장작판매,온수,놀이터,운동시설","계곡 물놀이,산책로,수상레저,낚시,해수욕,수영장,농어촌체험시설,어린이놀이시설",25,0,0,0,"일출명소,일몰명소,수상레저,낚시,가을단풍명소,걷기길",,불가능,128.422632407063,34.823594441379
2918,네이스트 프라이빗 음성,민간,충청북도,음성군,충북 음성군 원남면 덕생로 167-15,14,0,6,0,0,,0,0,0,0,0,0,14,0,0,2021.3.12,개별,"전기,무선인터넷,장작판매,온수","계곡 물놀이,산책로,어린이놀이시설",15,0,0,0,걷기길,,가능,127.598136661815,36.8943769906565
2919,호수위의하루,민간,충청북도,충주시,충북 충주시 중앙탑면 반천안길 63,0,0,0,2,0,,0,0,0,0,0,0,0,0,0,2021.3.12,개별,"전기,무선인터넷,온수","산책로,어린이놀이시설",2,0,0,2,"일몰명소,걷기길",,가능,127.856738555155,37.0386417713528
2920,둥지캠핑장,민간,강원도,화천군,강원 화천군 사내면 돈내미길 183-39,10,0,0,0,0,,4,6,5,6,7,7,8,1,1,2021.3.15,개별,"전기,무선인터넷,장작판매,운동시설",,0,0,0,0,가을단풍명소,,가능(소형견),127.553366099067,38.0708365697176
2921,안면도스쿨버스캠핑장,민간,충청남도,태안군,충남 태안군 안면읍 안면대로 3356-1,0,0,0,14,0,,0,0,0,0,0,0,0,0,0,2021.3.16,개별,"전기,무선인터넷,온수,물놀이장,놀이터,산책로,운동장,운동시설","산책로,수상레저,낚시,해수욕",14,0,0,14,걷기길,,가능,126.360897885886,36.4832811895962
2922,물의나라 캠핑장,민간,경기도,가평군,경기 가평군 조종면 명지산로 475,0,28,0,0,0,,0,0,0,0,0,0,28,0,0,2021.3.16,개별,"전기,무선인터넷,장작판매,온수,트렘폴린",계곡 물놀이,0,0,0,0,"봄꽃여행,여름물놀이,가을단풍명소",,가능(소형견),127.381359351437,37.9110931098015
2923,에코팡팡캠핑장,민간,경상북도,포항시,경북 포항시 북구 죽장면 죽장로 2118-51,0,41,0,0,0,,7,0,0,8,0,0,41,0,0,2021.3.18,개별,"전기,무선인터넷,장작판매,온수,물놀이장,놀이터,운동시설,마트_편의점","계곡 물놀이,산책로,수상레저,낚시,해수욕",25,0,0,0,"여름물놀이,가을단풍명소",,불가능,129.231754514772,36.258622052037
2924,아미캠핑장,민간,경기도,연천군,경기 연천군 미산면 청정로918번길 121,0,40,0,0,0,,0,0,0,0,0,0,11,29,0,2021.3.22,개별,"전기,무선인터넷,장작판매,온수,트렘폴린,물놀이장,놀이터,운동시설,마트_편의점",,0,0,0,0,봄꽃여행,,가능,126.957530762539,38.0372524028823
2925,일곱식구 캠핑장,민간,전라북도,정읍시,전북 정읍시 칠보면 행단1길 153,0,24,7,0,0,,0,0,0,0,0,0,24,0,0,2021.3.24,개별,"전기,무선인터넷,장작판매,온수,놀이터,운동시설",산책로,20,0,0,7,걷기길,,가능(소형견),127.013521016224,35.586959563073
2926,산머루농원캠핑장,민간,경기도,파주시,경기 파주시 적성면 윗배우니길 441-42,42,0,0,0,0,,0,0,0,0,0,0,0,0,0,2021.3.25,개별,"전기,무선인터넷,장작판매,온수,놀이터,운동시설",청소년체험시설,0,0,0,0,,,불가능,126.960863525868,37.9584813052915
2927,산내 명수관광농원,민간,경상북도,경주시,경북 경주시 산내면 장사길 46-17,24,0,0,0,0,,0,0,0,0,0,0,12,5,1,2021.3.28,개별,"전기,무선인터넷,장작판매,온수,물놀이장,놀이터,산책로,운동장,운동시설","계곡 물놀이,산책로",12,0,0,0,"여름물놀이,가을단풍명소",,가능,129.050632027561,35.7901625476945
2928,카우보이 캠핑장,민간,강원도,횡성군,강원 횡성군 갑천면 어답산로 135,24,41,0,0,12,,0,0,0,0,0,0,41,0,0,2021.3.29,개별,"전기,무선인터넷,장작판매,물놀이장,운동시설",계곡 물놀이,22,6,1,6,"여름물놀이,가을단풍명소",,가능(소형견),128.040241999001,37.576324548366
2929,평창자연속쉼표캡핑장,민간,강원도,평창군,강원 평창군 봉평면 흥정계곡4길 171-10,0,9,0,0,0,,0,0,0,0,0,0,9,0,0,2021.3.30,개별,"전기,무선인터넷,장작판매,온수",계곡 물놀이,0,0,0,0,"여름물놀이,가을단풍명소",,가능,128.308619801293,37.6569206847809
2930,브룩스 캠핑장,민간,경기도,가평군,경기 가평군 가평읍 물안산길 83,0,0,0,4,0,,0,0,0,0,0,0,0,0,0,2021.3.31,개별,"전기,무선인터넷,장작판매,온수,물놀이장,운동시설",,0,0,0,0,여름물놀이,,가능,127.524914001361,37.8582374580238
2931,물가솔솔캠핑장,민간,강원도,홍천군,강원 홍천군 내면 을수길 153-6,15,18,0,0,0,,0,0,0,0,0,0,12,6,0,2021.3.12,개별,"전기,무선인터넷,장작판매,온수,운동시설",계곡 물놀이,10,0,0,0,"여름물놀이,가을단풍명소",,가능,128.461184981694,37.8172267585974
2932,캠핑소사이어티,민간,경상남도,진주시,경남 진주시 내동면 내축로 523,0,0,30,0,0,,0,0,0,0,0,0,0,0,0,2021.4.6,개별,"전기,무선인터넷,온수,물놀이장,놀이터,산책로,운동시설",산책로,30,0,0,30,"여름물놀이,걷기길",,불가능,128.022660596586,35.12888520306
2933,해마루 캠핑장,민간,강원도,평창군,강원 평창군 봉평면 흥정계곡2길 75,15,15,0,0,2,,0,0,0,0,0,0,7,8,0,2021.3.3,개별,"전기,무선인터넷,장작판매,온수,트렘폴린,운동시설",계곡 물놀이,7,2,2,3,"여름물놀이,가을단풍명소",,가능(소형견),128.330804679604,37.6555102615834
2934,캠프오슬로,민간,강원도,삼척시,강원 삼척시 원덕읍 삼척로 1698,13,0,0,0,0,,0,0,0,0,0,0,6,0,0,2021.4.29,개별,"전기,무선인터넷,장작판매",해수욕,7,0,0,0,일출명소,"릴선,화로대,난방기구",가능(소형견),129.32591952587,37.2640190845867
2935,섬진강별빛야영장,민간,전라남도,광양시,전남 광양시 진월면 사평1길 23,12,0,0,0,0,,0,0,0,0,0,0,12,0,0,2021.4.30,개별,"전기,장작판매,온수,놀이터,산책로,운동장,마트_편의점","산책로,운동장,수영장,청소년체험시설,농어촌체험시설",8,0,0,0,"봄꽃여행,걷기길",,불가능,127.781682994081,35.0112438901046
2936,편안캠핑장,민간,경상북도,경주시,경북 경주시 산내면 단석로 655-10,0,20,0,0,0,,0,0,0,0,0,0,20,0,0,2021.4.30,개별,"전기,무선인터넷,장작판매,온수,트렘폴린,놀이터","계곡 물놀이,산책로,어린이놀이시설",10,0,0,0,걷기길,,가능(소형견),129.040951390399,35.7583602392932
2937,휴가든 카라반,민간,강원도,영월군,강원 영월군 영월읍 복덕원길 45,0,0,0,3,0,,0,0,0,0,0,0,0,0,0,2021.4.28,개별,"전기,무선인터넷",계곡 물놀이,0,0,0,0,"봄꽃여행,여름물놀이,가을단풍명소",,가능,128.556419827103,37.1923513927422
2938,덕동히든밸리캠프펜션,민간,충청북도,제천시,충북 제천시 백운면 덕동로 207-3,5,0,0,0,0,,0,0,0,0,0,0,5,0,0,2021.4.28,개별,"전기,무선인터넷,마트_편의점",강/물놀이,10,0,0,0,,,가능,127.977903874674,37.2021033998151
2939,저스트글램핑,민간,전라북도,임실군,전북 임실군 강진면 이윤길 76,1,0,6,0,0,0.0,0,0,0,0,0,0,0,0,0,2021.4.28,개별,"전기,온수,물놀이장,놀이터","계곡 물놀이,산책로",12,0,0,12,"여름물놀이,걷기길",,불가능,127.147110676957,35.5632842435606
2941,러빙네이쳐,민간,강원도,인제군,강원 인제군 남면 설악로 1129,19,0,0,0,0,,0,0,0,0,0,0,19,0,0,2021.4.23,개별,"전기,무선인터넷,장작판매,온수,운동시설",,0,0,0,0,"봄꽃여행,가을단풍명소",,가능(소형견),128.115669783058,38.0015077578726
2942,금계관광농원,민간,충청남도,공주시,충남 공주시 유구읍 문금길 86,0,32,0,0,0,,0,0,0,0,0,0,32,0,0,2021.4.22,개별,"전기,장작판매,온수,트렘폴린,운동시설","계곡 물놀이,산책로",16,0,0,0,여름물놀이,,가능,126.983606373617,36.6376043932357
2943,아띠캠핑장,민간,경기도,연천군,경기 연천군 군남면 군남로 373,0,40,0,0,0,,0,0,0,0,0,0,0,0,0,2021.4.21,개별,"전기,무선인터넷,장작판매,트렘폴린,물놀이장,산책로",,0,0,0,0,,,가능(소형견),127.016628162794,38.0812308395463
2944,김삿갓삿갓 쉼터,민간,강원도,영월군,강원 영월군 김삿갓면 강변로 1390,7,0,0,0,0,,0,0,0,0,0,0,0,0,0,2021.4.21,개별,"전기,무선인터넷",,0,0,0,0,,,가능(소형견),128.529687691034,37.113718508332
2945,강가민박캠핑장,민간,경상남도,거창군,경남 거창군 북상면 덕유월성로 2123-15,27,3,0,0,0,,0,0,0,0,0,0,1,4,1,2021.4.20,개별,"전기,무선인터넷,장작판매,온수,운동시설","계곡 물놀이,산책로",18,0,0,0,여름물놀이,,불가능,127.800049285449,35.7802922758603
2946,우이동 가족캠핑장,지자체,서울특별시,강북구,서울 강북구 삼양로181길 28 (우이동),27,0,4,0,0,,0,0,0,0,0,0,27,0,0,2021.4.16,개별,"전기,무선인터넷,온수,놀이터,운동시설","계곡 물놀이,산책로",0,0,0,0,"봄꽃여행,가을단풍명소,걷기길",,불가능,127.011494400037,37.6654935281074
2947,달숲스테이,민간,충청북도,제천시,충북 제천시 금성면 산곡3길 151,0,0,16,0,0,0.0,0,0,0,0,0,0,0,0,0,2021.4.16,개별,"전기,무선인터넷,온수,놀이터,운동시설","계곡 물놀이,산책로,낚시,어린이놀이시설",16,0,0,16,"봄꽃여행,여름물놀이,가을단풍명소,겨울눈꽃명소",,불가능,128.189047934853,37.0882141574673
2948,더 빌리지,민간,충청북도,진천군,충북 진천군 문백면 봉죽2길 20-78,0,160,0,0,0,,0,0,0,0,0,0,0,0,0,2023.7.13,개별,"전기,무선인터넷,장작판매,온수,물놀이장,산책로,마트_편의점",산책로,80,0,0,0,여름물놀이,,가능,127.423893345268,36.7850874910442
2949,휴먼캠핑장,민간,경기도,양평군,경기 양평군 양동면 월은길 145,0,25,0,0,0,,0,0,0,0,0,0,21,4,0,2021.4.13,개별,"전기,무선인터넷,장작판매,온수,물놀이장,운동시설",계곡 물놀이,0,0,0,0,,,가능,127.709325996697,37.4351415154485
2950,곰취향 가득한 팔랑골 캠핑장,지자체,강원도,양구군,강원도 양구군 동면 팔랑리 1278-1,0,15,6,3,0,,0,0,0,0,0,0,10,0,0,2021.4.12,개별,"전기,무선인터넷,장작판매,온수,운동시설,마트_편의점","계곡 물놀이,산책로",0,0,0,0,"가을단풍명소,겨울눈꽃명소",,가능,128.058448986422,38.2110009773193
2952,내를 건너서 숲으로 캠핑장,민간,경상북도,청도군,경북 청도군 매전면 청려로 3470,0,26,0,0,0,,0,0,0,0,0,0,21,5,0,2021.4.6,개별,"전기,무선인터넷,장작판매,온수,놀이터,운동시설","계곡 물놀이,산책로",15,0,0,0,"여름물놀이,걷기길",,가능,128.840935177257,35.6788736974726
2953,수승대체험휴양마을,민간,경상남도,거창군,경남 거창군 위천면 원학길 410,0,0,3,0,0,,0,0,0,0,0,0,0,0,0,2021.4.1,개별,"전기,온수,놀이터,산책로,운동장,마트_편의점","계곡 물놀이,산책로",3,0,0,3,"여름물놀이,걷기길",,가능,127.831041777301,35.7526736167085
2954,범바위캠핑정원,민간,경기도,김포시,경기 김포시 대곶면 종생로 154,46,0,0,0,0,,0,0,0,0,0,0,0,0,0,2021.5.4,개별,"전기,장작판매,온수,물놀이장,산책로,마트_편의점","산책로,농어촌체험시설",30,2,2,2,,,가능,126.599849850437,37.6421992026356
2955,살롱드캠핑,민간,경기도,양평군,경기 양평군 양동면 활거리길 16-19,28,28,0,1,0,,0,0,0,0,0,0,0,0,0,2021.5.20,개별,"전기,무선인터넷,장작판매,온수,트렘폴린,물놀이장,산책로",,22,2,0,18,,,가능,127.748202717096,37.407831515172
2956,비토어촌체험휴양마을,민간,경상남도,사천시,경남 사천시 서포면 거북길 447,0,5,0,0,0,0.0,8,0,0,8,0,0,5,0,0,2021.5.4,개별,산책로,"산책로,낚시,해수욕",5,0,0,0,"일몰명소,여름물놀이",,불가능,127.971795061771,34.9675254401226
2957,의성펫월드 오토캠핑장,지자체,경상북도,의성군,경북 의성군 단북면 안계길 255-13,0,16,0,0,0,,0,0,0,0,0,0,7,2,1,2021.5.4,개별,"전기,무선인터넷,온수,물놀이장,놀이터,산책로,마트_편의점",산책로,16,0,0,0,여름물놀이,,불가능,128.427291455337,36.3921849378358
2958,웨이브 글램핑,민간,경상북도,포항시,경북 포항시 남구 구룡포읍 일출로 465,0,0,5,0,0,,0,0,0,0,0,0,0,0,0,2021.5.4,개별,"전기,무선인터넷,온수,트렘폴린,놀이터,운동시설","산책로,수상레저,낚시,해수욕",5,0,0,5,"일출명소,여름물놀이,걷기길",,불가능,129.577819806013,36.0314707571296
2959,해피니스 캠핑장,민간,경기도,양주시,경기 양주시 장흥면 권율로309번길 317-196,0,16,0,0,0,,0,0,0,0,0,0,1,15,0,2021.5.6,개별,"전기,무선인터넷,장작판매,온수,운동시설",산책로,0,0,0,0,,,가능,126.937037226494,37.7494182603172
2960,봉황자연휴양림 숲속야영장,자연휴양림,충청북도,충주시,충북 충주시 중앙탑면 수룡봉황길 540,5,0,0,6,0,,0,0,0,0,0,0,5,0,0,2021.5.6,불가,"전기,온수,놀이터","계곡 물놀이,산책로",11,0,0,6,"봄꽃여행,여름물놀이,가을단풍명소,겨울눈꽃명소,걷기길",,가능,127.829746486391,37.056522283936
2961,뷰델카라반펜션,민간,경상북도,경주시,경북 경주시 감포읍 감포로 329-34,0,0,0,29,0,,0,0,0,0,0,0,0,0,0,2021.5.7,개별,"전기,무선인터넷,온수,물놀이장,운동시설","산책로,수상레저,낚시,해수욕",29,0,0,29,"여름물놀이,걷기길",,가능(소형견),129.508029726401,35.818997984464
2962,달빛담은캠핑장,민간,전라남도,보성군,전남 보성군 벌교읍 장암길 284-37,0,0,0,0,0,,0,0,0,0,0,0,0,0,0,2021.5.7,개별,,,0,0,0,0,,,불가능,127.412229367114,34.8027737787748
2963,계곡 좋은 펜션 야영장,민간,경상남도,하동군,경남 하동군 청암면 아래몰길 24-10,0,5,0,0,0,,0,0,0,0,0,0,0,0,0,2021.5.13,개별,"전기,온수,놀이터","계곡 물놀이,산책로",5,0,0,0,"여름물놀이,걷기길",,가능,127.719862834119,35.2356344478479
2964,청도글램핑,민간,경상북도,청도군,경상북도 청도군 화양읍 동천리 603-1 ,0,0,9,0,0,,0,0,0,0,0,0,0,0,0,2021.5.20,개별,"전기,무선인터넷,장작판매,온수,트렘폴린,물놀이장,운동시설","계곡 물놀이,산책로",9,0,0,9,여름물놀이,,불가능,128.713845946371,35.6438661989326
2965,파머스글램핑,민간,전라북도,고창군,전북 고창군 상하면 상하농원길 11-23,0,0,12,0,0,,0,0,0,0,0,0,0,0,0,2021.5.14,개별,"전기,무선인터넷,온수,물놀이장,놀이터",,12,0,0,12,여름물놀이,,가능(소형견),126.450387366184,35.447772924323
2966,양양캠프장,민간,강원도,양양군,강원특별자치도 양양군 손양면 송평길 28,0,0,0,0,0,0.0,0,0,0,0,0,0,0,0,0,2021.5.14,개별,,,0,0,0,0,,,불가능,128.654835635587,38.0905631871492
2967,모짜르트,민간,경기도,양평군,경기 양평군 단월면 윗고북길 33-23,0,20,0,0,0,,0,0,0,0,0,0,0,0,0,2021.5.17,개별,"전기,무선인터넷,장작판매,트렘폴린,운동시설",계곡 물놀이,0,0,0,0,,,가능,127.587997105598,37.5874413301783
2968,태안노을숲캠핑장,민간,충청남도,태안군,충남 태안군 남면 마검포길 311-42,0,0,0,0,0,0.0,0,0,0,0,0,0,0,0,0,2023.11.29,개별,"전기,장작판매,온수,물놀이장,마트_편의점","산책로,낚시,해수욕,농어촌체험시설",18,0,0,0,"일몰명소,낚시,여름물놀이,걷기길",,가능(소형견),126.291158484472,36.6070674915784
2969,해씨유,민간,충청남도,보령시,충청남도 보령시 오천면 원산도리 1671-79 ,0,46,0,0,0,0.0,0,0,0,0,0,0,48,0,0,2023.9.21,개별,"전기,장작판매,온수,운동시설",해수욕,0,0,0,0,여름물놀이,,가능(소형견),126.403200941586,36.3678486490348
2970,청평사 국민여가 캠핑장,지자체,강원도,춘천시,강원 춘천시 북산면 오봉산길 630,12,7,0,0,0,,0,0,0,0,0,0,0,0,0,2021.5.17,개별,"전기,온수,운동시설,마트_편의점","계곡 물놀이,산책로",0,0,0,0,가을단풍명소,,가능,127.817991854262,37.9829673908578
2971,가반나야영장,민간,경상남도,남해군,경남 남해군 창선면 서부로 892-9,21,0,0,0,0,,0,0,0,0,0,0,21,0,0,2021.5.18,개별,"전기,무선인터넷,장작판매,물놀이장,놀이터,운동시설,마트_편의점","산책로,낚시",0,0,0,0,"일몰명소,낚시,여름물놀이,걷기길",,가능(소형견),127.983987835946,34.8851228017535
2972,금강뷰,민간,충청남도,금산군,충남 금산군 제원면 낙안길 107-13,0,0,0,3,0,,0,0,0,0,0,0,0,0,0,2021.5.18,개별,"전기,무선인터넷,장작판매,온수,놀이터","산책로,낚시,어린이놀이시설",3,0,0,0,"일몰명소,여름물놀이,걷기길",,가능(소형견),127.58052648947,36.115037954226
2973,연종 캠핑장,민간,충청남도,공주시,충남 공주시 유구읍 구계연종길 473,20,0,0,0,0,,0,0,0,0,0,0,20,0,0,2021.5.20,개별,"전기,무선인터넷,장작판매,온수,트렘폴린,물놀이장,놀이터,운동시설,마트_편의점","계곡 물놀이,산책로",11,0,0,0,"봄꽃여행,여름물놀이,걷기길",,가능,127.00224328195,36.5997525604998
2974,소풍,민간,경상북도,경주시,경북 경주시 천북면 새터흥림길 1-27,0,14,0,0,0,,7,0,0,8,0,0,14,0,0,2021.5.21,개별,"전기,무선인터넷,장작판매,온수,놀이터,산책로,운동시설",산책로,14,0,0,0,걷기길,,불가능,129.289919167019,35.9228940578614
2975,보라보라카라반 캠핑장,민간,경상북도,포항시,경북 포항시 북구 청하면 해안로 2264,0,0,0,9,0,,0,0,0,0,0,0,0,0,0,2021.5.21,개별,"전기,온수,물놀이장,놀이터,운동시설","산책로,수상레저,낚시,해수욕",9,0,0,9,"일출명소,여름물놀이,걷기길",,가능,129.372783016484,36.1951215669801
2976,밀양 가보자 캠핑장,민간,경상남도,밀양시,경남 밀양시 단장면 단장로 905,22,0,0,0,0,0.0,0,0,0,0,0,0,1,1,1,2021.5.25,개별,"전기,무선인터넷,장작판매,온수,트렘폴린,물놀이장,놀이터,마트_편의점",산책로,22,0,0,0,,,가능(소형견),128.855870933534,35.4735503911258
2977,프로미스,민간,경기도,포천시,경기 포천시 이동면 여우고개로242번길 21-27,0,0,0,4,0,,0,0,0,0,0,0,0,0,0,2021.5.26,개별,"전기,무선인터넷,물놀이장",,0,0,0,0,,,가능(소형견),127.348094371091,38.0512047776463
2978,홍천높은터캠핑장,민간,강원도,홍천군,강원 홍천군 홍천읍 높은터로 235,0,22,0,0,0,0.0,0,0,0,0,0,0,0,0,0,2021.5.27,개별,"전기,무선인터넷,놀이터,산책로,운동시설","산책로,어린이놀이시설",0,0,0,0,,,가능(소형견),127.845764469818,37.6483462737702
2979,섬진강권역 거북이야영 캠핑장,민간,전라북도,순창군,전북 순창군 동계면 장군목길 352,4,0,0,0,0,,0,0,0,0,0,0,4,0,0,2021.5.27,개별,"전기,놀이터,산책로,운동장","계곡 물놀이,산책로,어린이놀이시설",4,0,0,0,걷기길,,가능(소형견),127.205991132818,35.4463175309925
2980,십이선녀탕캠핑장,민간,강원도,인제군,강원 인제군 북면 십이선녀탕길 83,13,3,0,0,0,,5,0,0,6,0,0,23,0,0,2021.5.27,개별,"전기,무선인터넷,장작판매,온수,물놀이장,마트_편의점",강/물놀이,20,0,0,0,"여름물놀이,가을단풍명소",,가능(소형견),128.301508381731,38.1827659250998
2981,스타빌,민간,제주특별자치도,서귀포시,제주특별자치도 서귀포시 안덕면 광평로 34-154,0,0,33,0,0,0.0,0,0,0,0,0,0,0,0,0,2021.5.28,개별,"전기,무선인터넷,장작판매,온수,물놀이장,놀이터,산책로,운동장,운동시설,마트_편의점","산책로,운동장,낚시",0,0,0,0,"일출명소,일몰명소,낚시,액티비티,봄꽃여행,겨울눈꽃명소,걷기길",,가능,126.395694649303,33.3387925869827
2982,더설렘,민간,경기도,포천시,경기 포천시 일동면 윗갈기1길 60,0,0,4,11,0,,0,0,0,0,0,0,0,0,0,2021.5.28,개별,"전기,무선인터넷,장작판매,온수,트렘폴린,물놀이장,운동장,운동시설",,0,0,0,0,"봄꽃여행,가을단풍명소",,가능,127.319044819344,37.9666050597793
2983,거림캠핑장,민간,경상북도,청도군,경북 청도군 운문면 운문로 1158-10,34,0,0,0,0,,0,0,0,0,0,0,34,0,0,2021.5.28,개별,"전기,무선인터넷,장작판매,온수,트렘폴린,물놀이장,놀이터,운동시설,마트_편의점","계곡 물놀이,산책로",17,0,0,0,여름물놀이,릴선,가능,128.998968918937,35.6732866300588
2984,탄금호 야영장,민간,충청북도,충주시,충북 충주시 금가면 오미기2길 62-1,17,0,0,0,0,,0,0,0,0,0,0,17,0,0,2021.5.28,개별,"전기,무선인터넷,장작판매,온수,놀이터,운동시설","산책로,수상레저,어린이놀이시설",17,0,0,0,"일몰명소,걷기길",,가능,127.880060508707,37.0020511783285
2985,크리스월드,민간,경기도,가평군,경기 가평군 가평읍 북한강변로 360-93,0,0,19,0,0,,0,0,0,0,0,0,0,0,0,2021.5.31,개별,"전기,무선인터넷,장작판매,온수,물놀이장,운동시설",수상레저,0,0,0,0,"수상레저,여름물놀이",,가능(소형견),127.542095970205,37.7608499510818
2986,진동리 국민여가캠핑장 by zapza,지자체,강원도,인제군,강원도 인제군 기린면 진동리 618번지,44,0,0,0,0,,0,0,0,0,0,0,0,0,0,2021.6.11,개별,"전기,무선인터넷,장작판매,온수,마트_편의점","계곡 물놀이,낚시,강/물놀이",25,0,0,0,"여름물놀이,가을단풍명소,겨울눈꽃명소,걷기길",,불가능,128.419579480304,37.9687051748717
2987,캠핑주막,,경기도,여주시,경기 여주시 북내면 당전로 470,0,0,0,0,0,,0,0,0,0,0,0,0,0,0,2015.11.5,개별,,,0,0,0,0,,,가능(소형견),127.716536428521,37.3485497447184
2988,표씨야영장,,전라북도,부안군,전라북도 부안군 변산면 운산리 441-6번지 ,0,0,0,0,0,,0,0,0,0,0,0,0,0,0,2016.7.14,개별,,,0,0,0,0,,,불가능,126.506736082031,35.6604505820751
2989,구례포중앙야영장,,충청남도,태안군,충남 태안군 원북면 구례포길 47-20,0,0,0,0,0,,0,0,0,0,0,0,0,0,0,2021.7.29,개별,,,0,0,0,0,,,불가능,126.198293409451,36.8858242526264
2990,몽산포감성캠핑장,민간,충청남도,태안군,충남 태안군 남면 몽산포길 65-5,8,46,0,0,0,,0,0,0,0,0,0,4,5,19,2021.6.3,개별,"전기,무선인터넷,장작판매,온수,놀이터,운동시설","산책로,수상레저,낚시,해수욕",30,0,0,0,"일몰명소,여름물놀이","화로대,식기,침낭",가능,126.288835544321,36.671275902706
2991,오색허브농원 캠핑장,민간,강원도,양양군,강원 양양군 서면 송어길 38,15,0,0,0,0,,0,0,0,0,0,0,15,0,0,2021.6.18,개별,"전기,무선인터넷,장작판매,운동시설",계곡 물놀이,10,2,0,15,가을단풍명소,,가능(소형견),128.538658687148,38.0700195418181
2992,합천호 문워크 카라반 캠핑,민간,경상남도,합천군,경남 합천군 대병면 신성동1길 19,1,0,0,2,0,,0,0,0,0,0,0,0,0,0,2021.6.22,개별,"전기,무선인터넷,장작판매,온수,물놀이장","산책로,어린이놀이시설",2,1,1,4,"여름물놀이,걷기길",,가능(소형견),128.015832851562,35.5210912628472
2993,강화 버팔로 캠팜,민간,인천광역시,강화군,인천 강화군 하점면 고려산로 329-74,29,0,0,0,0,,0,0,0,0,0,0,26,0,0,2021.6.15,개별,"전기,무선인터넷,장작판매,온수,놀이터,운동시설","계곡 물놀이,산책로,해수욕,청소년체험시설,농어촌체험시설",30,1,1,0,"일몰명소,봄꽃여행,여름물놀이,걷기길",화로대,가능,126.415161242734,37.7547512713873
2994,낭추골캠핑장,민간,충청북도,청주시,충북 청주시 상당구 낭성면 단재로 1890,0,40,0,0,0,,0,0,0,0,0,0,40,0,0,2021.6.3,개별,"전기,온수,물놀이장,놀이터,산책로,운동시설,마트_편의점",산책로,20,0,0,0,"액티비티,여름물놀이,걷기길",,가능,127.618159784884,36.5978849056883
2995,운악산진우네캠핑장,민간,경기도,포천시,경기 포천시 화현면 화동로 218-18,0,23,0,0,0,,0,0,0,0,0,0,23,0,0,2021.6.3,개별,"전기,무선인터넷,장작판매",,0,0,0,0,가을단풍명소,,가능(소형견),127.303056498014,37.8875302393728
2996,군위 솔밭야영장,민간,대구광역시,군위군,대구 군위군 부계면 원효길 59-1,0,20,0,0,0,,0,0,0,0,0,0,20,0,0,2021.6.3,개별,"전기,장작판매,온수,물놀이장,놀이터,운동시설","계곡 물놀이,산책로,어린이놀이시설",10,0,0,0,"여름물놀이,걷기길",,불가능,128.661404914244,36.0471620846931
2997,봉수대 해변 야영장,지자체,강원도,고성군,강원 고성군 죽왕면 봉수대길 10-22,38,84,0,10,0,0.0,0,0,0,0,0,0,20,18,0,2024.6.10,개별,"온수,물놀이장,운동시설,마트_편의점","수상레저,해수욕",0,0,0,0,"일출명소,수상레저,액티비티,걷기길",,가능,128.526564805009,38.3236554203286
2998,젤코바 캠핑장,민간,경기도,용인시,경기 용인시 처인구 양지면 송주로236번길 82-19,0,35,0,0,0,,0,0,0,0,0,0,30,5,0,2021.6.8,개별,"전기,무선인터넷,장작판매,온수,물놀이장,놀이터,운동시설",,0,0,0,0,봄꽃여행,,가능,127.262299451612,37.2353432314165
2999,대둔산캠핑펜션오토캠핑장,민간,전라북도,완주군,전북 완주군 운주면 대둔산로 2100-25,0,20,0,0,0,,0,0,0,0,0,0,20,0,0,2021.6.9,개별,"전기,장작판매,온수,트렘폴린,물놀이장,놀이터,운동시설,마트_편의점","계곡 물놀이,산책로",10,0,0,0,여름물놀이,,가능,127.337277964431,36.1079249563316
3000,거북선마을 캠핑장,민간,경상남도,사천시,경남 사천시 용현면 사천대교로 75-61,0,0,0,0,0,,0,0,0,0,0,0,0,0,0,2021.6.10,개별,"전기,온수",낚시,0,0,0,0,일몰명소,,가능(소형견),128.040600077149,34.9985104218571
3001,아빌라 더 오아시스,민간,경상남도,사천시,경남 사천시 해안관광로 68-20 (실안동),0,0,24,0,0,0.0,0,0,0,0,0,0,0,0,0,2021.6.10,개별,"장작판매,온수,물놀이장",산책로,24,0,0,0,여름물놀이,,가능,128.041127967238,34.9479381525286
3002,가산산성마을 캠핑장,민간,경상북도,칠곡군,경북 칠곡군 가산면 가산로 891,19,0,0,0,0,0.0,0,0,0,0,0,0,19,0,0,2021.6.10,개별,"전기,무선인터넷,장작판매,온수,물놀이장,놀이터,산책로,운동시설,마트_편의점","계곡 물놀이,산책로",15,0,0,0,여름물놀이,릴선,가능,128.59778184802,36.0499990759606
3003,어썸비치,민간,강원도,삼척시,강원 삼척시 근덕면 초곡길 380,0,0,6,0,0,,0,0,0,0,0,0,0,0,0,2021.6.10,개별,"전기,무선인터넷,장작판매,온수,물놀이장",해수욕,0,0,0,0,일출명소,,가능,129.287613849576,37.3094294989395
3004,사르데냐 오토캠핑장,민간,인천광역시,강화군,인천 강화군 길상면 장흥로101번길 63-9,0,40,0,0,0,,6,0,0,10,0,0,40,0,0,2021.6.14,개별,"전기,무선인터넷,장작판매,온수,물놀이장,운동시설",,0,0,0,0,봄꽃여행,,가능(소형견),126.508018436609,37.6099452864469
3005,보성 지중해 야영장,민간,전라남도,보성군,전남 보성군 회천면 공룡로 206-42,0,0,0,0,0,,0,0,0,0,0,0,0,0,0,2021.6.15,개별,"전기,온수",낚시,0,0,0,0,낚시,,가능(소형견),127.143973256508,34.6933728148976
3006,낭도야영장,민간,전라남도,여수시,전남 여수시 화정면 여산길 150,0,0,0,0,0,,0,0,0,0,0,0,0,0,0,2021.6.15,개별,"전기,온수,놀이터,운동장","낚시,해수욕",0,0,0,0,"낚시,여름물놀이,걷기길",,가능(소형견),127.541616686518,34.6003866961208
3007,평암189 야영장,민간,경상남도,창원시,경남 창원시 마산합포구 진전면 평암로 372-8,22,0,0,0,0,,0,0,0,0,0,0,17,4,1,2021.6.16,개별,"전기,무선인터넷,장작판매,온수,트렘폴린,물놀이장,놀이터,운동시설","계곡 물놀이,청소년체험시설",18,0,0,0,,릴선,가능(소형견),128.401334765838,35.1591352183352
3008,에코밸리 캠프,민간,경상북도,경주시,경북 경주시 산내면 문복로 506-16,80,0,0,0,0,0.0,0,0,0,0,0,0,30,10,0,2021.6.16,개별,"전기,장작판매,온수,물놀이장,놀이터,운동시설,마트_편의점","계곡 물놀이,산책로",50,0,0,0,여름물놀이,,가능(소형견),129.051011793534,35.6790355315237
3009,캠프 포레스트,민간,경상북도,경주시,경북 경주시 산내면 문복로 106,53,0,0,0,0,0.0,9,6,0,9,6,0,48,5,0,2021.6.18,개별,,,0,0,0,0,,,불가능,129.066568225893,35.6485437082611
3010,두루웰 캠핑장,지자체,강원도,철원군,강원 철원군 갈말읍 지경1길 69,0,20,0,0,0,,0,0,0,0,0,0,20,0,0,2021.6.18,개별,"전기,무선인터넷,트렘폴린,물놀이장,운동장,마트_편의점",청소년체험시설,0,0,0,0,,,가능,127.353242784954,38.2279872230601
3011,포천캠핑마을,민간,경기도,포천시,경기 포천시 신북면 청신로1196번길 293-57,0,25,0,0,0,,0,0,0,0,0,0,25,0,0,2021.6.23,개별,"전기,무선인터넷,장작판매,온수,운동시설",계곡 물놀이,0,0,0,0,,,불가능,127.167155405125,37.9371348038655
3012,고창군 선운산 국민여가캠핑장,국민여가,전라북도,고창군,전북 고창군 아산면 선운사로 158-62,37,0,6,0,0,,0,0,0,0,0,0,2,2,7,2021.6.23,개별,"전기,온수,놀이터","계곡 물놀이,산책로,낚시",26,0,0,6,"봄꽃여행,가을단풍명소,걷기길",,불가능,126.582936122919,35.5025404994274
3013,양평숲 비룡캠프장,민간,경기도,양평군,경기 양평군 청운면 목내미길 83-215,0,60,0,0,10,,0,0,0,0,0,0,30,0,0,2021.6.23,개별,"전기,무선인터넷,장작판매,온수,운동시설",계곡 물놀이,0,0,0,0,여름물놀이,,가능(소형견),127.713543989302,37.5232034039068
3014,우니메이카(가평점),민간,경기도,가평군,경기 가평군 가평읍 경반안로 223,0,12,0,0,0,,0,0,0,0,0,0,12,0,0,2021.6.25,개별,"전기,무선인터넷,장작판매,온수,운동시설",계곡 물놀이,10,1,1,1,"봄꽃여행,여름물놀이","텐트,릴선,화로대,식기,침낭",가능,127.483104195453,37.8277911167381
3015,을전56오토캠핑장,민간,충청북도,단양군,충북 단양군 가곡면 을전길 56-1,0,10,0,0,0,,0,0,0,0,0,0,5,5,0,2021.6.22,개별,"전기,장작판매,온수,놀이터,운동시설","계곡 물놀이,산책로",10,0,0,0,"일출명소,일몰명소,봄꽃여행,여름물놀이,가을단풍명소,겨울눈꽃명소,걷기길",,가능,128.464791991759,36.9870043097006
3016,꽃길글램핑,민간,경상남도,산청군,경남 산청군 금서면 왕등재로 160,0,0,8,0,0,,0,0,0,0,0,0,0,0,0,2021.6.25,개별,"전기,무선인터넷,장작판매,온수,물놀이장,놀이터,운동시설",,8,0,0,8,여름물놀이,,가능,127.824038994709,35.3972971508426
3017,가평 네잎클로버 카라반 글램핑,민간,경기도,가평군,경기 가평군 설악면 장수로 156-20,0,0,5,13,0,,0,0,0,0,0,0,0,0,0,2021.6.25,개별,"전기,무선인터넷,장작판매,트렘폴린,물놀이장,운동시설",계곡 물놀이,0,0,0,0,여름물놀이,,가능,127.508777555181,37.6176707862783
3018,달무리 캠핑장,민간,경기도,가평군,경기 가평군 조종면 연인산로 595-1,0,6,0,0,0,,0,0,0,0,0,0,0,0,0,2021.6.25,개별,"전기,무선인터넷",계곡 물놀이,0,0,0,0,"봄꽃여행,여름물놀이,가을단풍명소",,불가능,127.384255832098,37.8554016654519
3019,승암159캠핑장,민간,충청북도,괴산군,충북 괴산군 청천면 후평도원로 484,27,0,0,0,0,,0,0,0,0,0,0,26,1,0,2021.6.28,개별,"전기,장작판매,온수,놀이터,운동시설","계곡 물놀이,산책로",15,0,0,0,"봄꽃여행,여름물놀이,가을단풍명소,겨울눈꽃명소",,가능(소형견),127.783436351317,36.6621812912012
3020,연천미라클타운,지자체,경기도,연천군,경기 연천군 군남면 군중로 134,0,0,0,5,0,0.0,0,0,0,0,0,0,0,0,0,2021.6.28,개별,"전기,무선인터넷,온수,물놀이장,운동시설",,0,0,0,0,봄꽃여행,,가능,127.045057170427,38.131037748298
3021,토리글램핑,민간,경상남도,사천시,경남 사천시 서포면 토끼로 215,0,0,11,4,0,0.0,0,0,0,0,0,0,0,0,0,2021.6.29,개별,"전기,무선인터넷,온수,물놀이장,놀이터,운동시설","산책로,낚시",15,0,0,15,"일출명소,낚시,여름물놀이,걷기길",,불가능,127.964672317912,34.9812612848716
3022,그린필로우,민간,강원도,홍천군,강원도 홍천군 서석면 검산리 106 ,0,18,0,0,0,,0,0,0,0,0,0,6,6,6,2021.6.29,개별,"전기,무선인터넷,장작판매,온수,물놀이장,놀이터,운동시설","계곡 물놀이,산책로",0,0,0,0,"봄꽃여행,여름물놀이,가을단풍명소",,불가능,128.249083202165,37.7362646073934
3023,우니메이카(연천점),민간,경기도,연천군,경기 연천군 중면 합내로 458,0,13,0,0,0,,0,0,0,0,0,0,0,0,0,2021.6.29,개별,"전기,무선인터넷,장작판매,온수,운동시설",계곡 물놀이,0,0,0,0,가을단풍명소,,가능,127.062990058815,38.1558893182963
3024,노을길 야영장,민간,전라남도,무안군,전남 무안군 망운면 조금나루길 128-68,10,0,0,2,0,,0,0,0,0,0,0,1,5,4,2021.6.30,개별,"놀이터,마트_편의점","산책로,수상레저,낚시,해수욕",12,0,0,0,"일몰명소,여름물놀이",,가능,126.354241823982,35.0052735009278
3025,천안밤나무골 가족캠핑농원,민간,충청남도,천안시,충남 천안시 서북구 성거읍 보명사길 74-13,0,70,0,0,0,,0,0,0,0,0,0,62,0,0,2021.11.24,개별,"전기,무선인터넷,온수,물놀이장,산책로,운동장,마트_편의점","산책로,수상레저,낚시,청소년체험시설,농어촌체험시설",60,2,4,1,"봄꽃여행,여름물놀이,가을단풍명소",,불가능,127.199950526332,36.8600354803638
3026,그린애캠핑장,민간,강원도,원주시,강원 원주시 호저면 칠봉로 604-5,0,20,0,0,0,0.0,0,0,0,0,0,0,0,0,0,2021.7.14,개별,"전기,무선인터넷,장작판매,온수,운동시설",계곡 물놀이,10,1,0,4,"여름물놀이,가을단풍명소",,불가능,127.893094790745,37.4407063771689
3027,두미리관광농원,민간,강원도,홍천군,강원 홍천군 서면 개야로 304-229,10,0,0,0,0,,0,0,0,0,0,0,0,0,0,2021.7.5,개별,"전기,장작판매,온수,마트_편의점","계곡 물놀이,산책로,낚시,강/물놀이,농어촌체험시설",8,2,0,0,"일출명소,일몰명소,낚시,액티비티,여름물놀이,가을단풍명소,겨울눈꽃명소,걷기길","릴선,화로대,난방기구",불가능,127.642790984903,37.676980511391
3028,도원야영장,국립공원,전라남도,화순군,전남 화순군 이서면 도원길 80-30,19,0,13,0,0,0.0,0,0,0,0,0,0,9,10,13,2021.7.7,개별,"전기,놀이터",산책로,40,0,2,15,"봄꽃여행,가을단풍명소","릴선,화로대,식기",불가능,127.026972393289,35.1110246788238
3029,파크킹,민간,경상북도,김천시,경북 김천시 어모면 은림로 62-11,31,0,0,0,1,,0,0,0,0,0,0,15,17,0,2021.7.31,개별,"전기,무선인터넷,장작판매,온수,트렘폴린,물놀이장,놀이터,산책로,운동장,운동시설,마트_편의점",산책로,20,0,0,0,"여름물놀이,걷기길",,가능,128.127005073568,36.1795214683443
3030,봉즈살롱,민간,강원도,횡성군,강원 횡성군 서원면 서원서로102번길 3-18,7,0,0,0,0,,0,0,0,0,0,0,7,0,0,2021.7.30,개별,"전기,무선인터넷,물놀이장",계곡 물놀이,0,0,0,0,,,불가능,127.825283353675,37.4806560191869
3031,힐링피아 카라반 글램핑 풀 캠핑장,민간,경기도,가평군,경기 가평군 설악면 유명산길 61-75,1,0,0,15,0,,0,0,0,0,0,0,0,0,0,2021.5.10,개별,"전기,무선인터넷,장작판매,온수,마트_편의점","계곡 물놀이,산책로,강/물놀이,수영장,청소년체험시설",20,1,1,15,"액티비티,봄꽃여행,여름물놀이,가을단풍명소,겨울눈꽃명소,걷기길",,불가능,127.494715155038,37.5978836806172
3032,우니메이카 태안점,민간,충청남도,태안군,충남 태안군 소원면 산간이길 158-24,15,0,0,0,0,,0,0,0,0,0,0,15,0,0,2021.7.21,개별,"전기,장작판매,온수,놀이터,운동시설","수상레저,낚시,해수욕",16,1,1,1,"봄꽃여행,가을단풍명소,겨울눈꽃명소",화로대,가능,126.189075874367,36.7796789199668
3033,뇌운계곡글램핑,민간,강원도,평창군,강원 평창군 평창읍 뇌운계곡로 659-6,0,0,7,0,0,,0,0,0,0,0,0,0,0,0,2021.7.30,개별,"전기,무선인터넷","계곡 물놀이,수상레저",0,0,0,0,"액티비티,여름물놀이",,가능,128.382165076915,37.4156960266838
3034,충주 비내캠프 체험학습장,민간,충청북도,충주시,충북 충주시 앙성면 학교말2길 50,28,0,0,0,0,,0,0,0,0,0,0,28,0,0,2021.7.30,개별,"전기,장작판매,온수,놀이터,산책로,운동시설,마트_편의점",산책로,30,0,0,0,여름물놀이,,가능(소형견),127.75252673125,37.1631382174659
3035,솔비치캠핑장,민간,충청남도,태안군,충남 태안군 남면 몽산포길 63-23,0,30,0,0,0,,0,0,0,0,0,0,30,0,0,2021.7.30,개별,"전기,무선인터넷,장작판매,온수,트렘폴린,놀이터,운동시설","산책로,낚시,해수욕",30,0,0,0,"일몰명소,여름물놀이",,가능(소형견),126.289683730001,36.6716119433621
3036,가온오토캠핑장,민간,경상북도,포항시,경북 포항시 북구 죽장면 새마을로 3351,0,31,0,0,0,,0,0,0,0,0,0,15,8,8,2021.7.30,개별,"전기,무선인터넷,장작판매,온수,트렘폴린,운동시설","계곡 물놀이,산책로",20,0,0,0,"가을단풍명소,걷기길",,가능,129.077770582898,36.1473336850134
3037,림스 글램핑,민간,전라남도,강진군,전남 강진군 강진읍 해강로 1038-30,3,3,14,3,0,,0,0,0,0,0,0,0,0,0,2021.7.29,개별,"전기,무선인터넷,온수,트렘폴린,물놀이장,놀이터",산책로,25,2,2,17,"여름물놀이,가을단풍명소","텐트,화로대,난방기구,식기",불가능,126.736732397298,34.6030214392499
3038,호미곶유니의바다 카라반캠핑장,민간,경상북도,포항시,경북 포항시 남구 호미곶면 해맞이로46번길 134,0,0,0,15,0,,0,0,0,0,0,0,0,0,0,2021.7.29,개별,"전기,무선인터넷,온수,놀이터,운동시설","수상레저,낚시,해수욕",15,0,0,15,"일출명소,여름물놀이,걷기길",,불가능,129.575187684427,36.0588372378599
3039,예손캠핑장,민간,경상북도,고령군,경북 고령군 덕곡면 가륜장길 20-7,0,13,0,0,0,,0,0,0,0,0,0,13,0,0,2021.7.29,개별,"전기,장작판매,놀이터,운동시설","산책로,어린이놀이시설",7,0,0,0,걷기길,,가능,128.214149864238,35.7931526512909
3040,웨이브파크 카라반,민간,경기도,시흥시,경기 시흥시 거북섬둘레길 42 (정왕동),0,0,0,15,0,,0,0,0,0,0,0,0,0,0,2021.7.28,개별,"전기,무선인터넷,장작판매,온수,물놀이장,마트_편의점",산책로,19,1,0,18,"일몰명소,수상레저,여름물놀이,걷기길",,불가능,126.680687596461,37.3241007968018
3041,포에스카라반파크,민간,경상북도,포항시,경북 포항시 남구 구룡포읍 동해안로 4166-17,0,0,0,38,0,,0,0,0,0,0,0,0,0,0,2021.7.28,개별,"전기,무선인터넷,온수,물놀이장,놀이터,운동시설","산책로,수상레저,낚시,해수욕",38,0,0,38,"일출명소,여름물놀이",,가능,129.530530051847,35.9406168192415
3042,약수동산,민간,경기도,양평군,경기 양평군 옥천면 약수동산길 86,0,20,0,0,0,0.0,0,0,0,0,0,0,0,0,0,2021.7.27,개별,"전기,무선인터넷,장작판매,운동시설",,0,0,0,0,"봄꽃여행,가을단풍명소",,불가능,127.455161855088,37.5077121363093
3043,학암포글램핑,민간,충청남도,태안군,충청남도 태안군 원북면 방갈리 515-26 ,0,0,13,0,0,,0,0,0,0,0,0,0,0,0,2021.7.27,개별,"전기,온수,물놀이장,놀이터,운동시설","산책로,수상레저,낚시,해수욕",13,0,0,13,"일몰명소,여름물놀이",,불가능,126.209738571761,36.8980643468456
3044,더예감스테이,민간,경상남도,산청군,경남 산청군 단성면 호암로 702-22,0,73,7,0,0,0.0,0,0,0,0,0,0,0,0,0,2021.7.27,개별,"전기,무선인터넷,장작판매,온수,물놀이장,운동시설,마트_편의점","계곡 물놀이,산책로",50,0,0,0,걷기길,,가능,127.903108931533,35.3212688943656
3045,캠프더포레,민간,경상남도,함양군,경남 함양군 서상면 부전계곡로 245,0,27,0,0,0,,0,0,0,0,0,0,9,12,6,2021.7.27,개별,"전기,장작판매,온수,트렘폴린,물놀이장,놀이터,운동시설,마트_편의점","계곡 물놀이,산책로",20,0,0,0,여름물놀이,릴선,불가능,127.671339162363,35.6492041341481
3046,태그하우스,민간,인천광역시,강화군,인천 강화군 길상면 동검길154번길 24-19,0,0,0,5,0,,0,0,0,0,0,0,0,0,0,2021.7.26,개별,"전기,무선인터넷,장작판매,온수,물놀이장",낚시,0,0,0,0,"일몰명소,낚시",,가능,126.506960143668,37.591590657351
3047,외옹치마을해수욕장해변야영장,지자체,강원도,속초시,강원도 속초시 대포동 591 번지,0,0,0,0,0,0.0,0,0,0,0,0,0,0,0,0,2024.7.8,개별,,,0,0,0,0,,,불가능,128.608551368866,38.1831120603539
3048,양지뜰캠핑장,민간,전라북도,무주군,전북 무주군 설천면 보안길 88,28,0,0,0,0,0.0,0,0,0,0,0,0,14,14,0,2021.7.26,개별,"전기,무선인터넷,장작판매,온수,물놀이장,놀이터,운동시설","계곡 물놀이,산책로,낚시",14,0,0,0,여름물놀이,,가능(소형견),127.768076518354,35.9076928151208
3049,우리들캠핑장,민간,강원도,양양군,강원 양양군 현북면 법수치길 1168-2,10,0,2,0,0,,0,0,0,0,0,0,0,0,0,2021.7.25,개별,"전기,무선인터넷,장작판매,온수,마트_편의점",,6,0,0,0,"낚시,여름물놀이,가을단풍명소,겨울눈꽃명소",,불가능,128.614852495746,37.8967874845508
3050,밤벌캠핑장,민간,경기도,가평군,경기 가평군 설악면 어비산길 15-23,0,50,0,0,0,0.0,0,0,0,0,0,0,15,0,0,2021.7.23,개별,"전기,무선인터넷,장작판매,온수,운동시설,마트_편의점",계곡 물놀이,0,0,0,0,여름물놀이,,가능(소형견),127.494674238424,37.6010933310507
3051,청춘캠핑장,민간,경기도,가평군,경기 가평군 가평읍 호반로 1700,0,0,4,1,0,,0,0,0,0,0,0,0,0,0,2021.7.23,개별,"전기,무선인터넷,운동시설",수상레저,0,0,0,0,"수상레저,여름물놀이",,불가능,127.512464556607,37.7467558568952
3052,단아한,민간,전라북도,순창군,전북 순창군 팔덕면 산동신흥길 6,2,0,0,0,0,,0,0,0,0,0,0,2,0,0,2021.7.23,개별,"전기,무선인터넷,온수,물놀이장,운동시설","계곡 물놀이,산책로",2,0,0,0,걷기길,,가능,127.092564916999,35.3894610461118
3053,월포번영회캠핑장,지자체,경상북도,포항시,경북 포항시 북구 청하면 해안로2308번길 72,0,0,0,0,0,,0,0,0,0,0,0,0,0,0,2022.7.7,개별,,,0,0,0,0,,,불가능,129.371267766048,36.2033297916027
3054,고래불해수욕장(병곡지구) 야영장,지자체,경상북도,영덕군,경상북도 영덕군 병곡면 병곡리 58-5 ,0,0,0,0,0,0.0,0,0,0,0,0,0,0,0,0,2024.7.16,개별,,,0,0,0,0,,,불가능,129.40972414202,36.597062676204
3055,다시캠핑장,민간,경상북도,고령군,경북 고령군 덕곡면 덕운로 1043-64,12,0,0,0,0,,0,0,0,0,0,0,9,3,0,2021.7.22,개별,"전기,무선인터넷,장작판매,트렘폴린,물놀이장,놀이터,운동시설,마트_편의점","계곡 물놀이,산책로",0,0,0,0,여름물놀이,,가능,128.196223091802,35.7989682044371
3056,산내들캠프,민간,경상북도,경주시,경북 경주시 산내면 대현길 405,15,0,0,0,0,,7,6,0,8,8,0,11,4,0,2021.7.20,개별,"전기,장작판매,물놀이장,놀이터,산책로,운동시설","계곡 물놀이,산책로",8,0,0,0,"여름물놀이,걷기길",,불가능,129.077787951409,35.6996449661227
3057,고래불해수욕장(영리지구) 야영장,지자체,경상북도,영덕군,경상북도 영덕군 병곡면 영리 119-17 ,0,0,0,0,0,0.0,0,0,0,0,0,0,0,0,0,2024.7.16,개별,,,0,0,0,0,,,불가능,129.409236606302,36.5939251136981
3058,빗소리야영장,민간,경상북도,청도군,경북 청도군 각북면 삼평1길 90-11,0,27,0,0,0,,0,0,0,0,0,0,27,0,0,2021.7.20,개별,"전기,무선인터넷,장작판매,온수,트렘폴린,물놀이장,놀이터,운동시설,마트_편의점","계곡 물놀이,산책로,어린이놀이시설",27,0,0,0,여름물놀이,난방기구,가능(소형견),128.593998346656,35.6679653956715
3059,후포해수욕장 야영장,지자체,경상북도,울진군,경북 울진군 후포면 삼율3길 48-1,0,0,0,0,0,,0,0,0,0,0,0,0,0,0,2022.7.14,불가,놀이터,"산책로,해수욕",0,0,0,0,"일출명소,수상레저,낚시,여름물놀이",,불가능,129.444956994818,36.6787851853564
3060,화성시 매송 오토캠핑장,지자체,경기도,화성시,경기도 화성시 매송면 어천리 164 ,0,25,0,0,0,,0,0,0,0,0,0,25,0,0,2021.7.20,개별,"전기,무선인터넷",낚시,0,0,0,0,,,불가능,126.916051426133,37.2580077978092
3061,캠핑느루,민간,강원도,고성군,강원 고성군 토성면 미시령폭포길 64,8,0,0,0,0,,0,0,0,0,0,0,7,1,0,2021.7.19,개별,"전기,무선인터넷,장작판매,온수,운동시설","계곡 물놀이,산책로",0,0,0,0,"여름물놀이,가을단풍명소",,가능,128.481983599814,38.2090423922781
3062,자작도캠핑장,지자체,강원도,고성군,강원 고성군 죽왕면 삼포해변길 94,28,0,0,0,0,0.0,0,0,0,0,0,0,28,0,0,2021.7.19,불가,"전기,무선인터넷,장작판매,운동시설",해수욕,0,0,0,0,여름물놀이,,불가능,128.538621944364,38.3116719786655
3063,광진리해수욕장 야영장,,강원도,양양군,강원도 양양군 현남면 광진리 78-20 ,0,0,0,0,0,,0,0,0,0,0,0,0,0,0,2020.7.19,개별,,,0,0,0,0,,,불가능,128.772859523531,37.9533263088809
3064,오렌지캠프,민간,충청북도,보은군,충북 보은군 속리산면 속리산로 995-35,0,11,0,0,0,,0,0,0,0,0,0,5,6,0,2021.7.16,개별,"전기,무선인터넷,장작판매,온수,트렘폴린,물놀이장,놀이터,운동시설","계곡 물놀이,산책로",10,0,0,0,여름물놀이,,가능,127.787739546473,36.5240341135949
3065,웰니스 권역 야영장,민간,충청남도,공주시,충남 공주시 우성면 무성산로 296,20,0,0,0,0,0.0,0,0,0,0,0,0,20,0,0,2021.7.16,개별,"전기,온수,놀이터,산책로,운동장",산책로,20,0,0,0,걷기길,,불가능,127.088537956752,36.5012148623411
3066,캠프고일리,민간,경기도,포천시,경기 포천시 신북면 포천로2337번길 38-29,0,4,0,0,0,,0,0,0,0,0,0,0,0,0,2021.7.16,공동취사장,"전기,무선인터넷,온수,트렘폴린,물놀이장,산책로",,0,0,0,0,,,불가능,127.188973038966,37.9617136499619
3067,하늘아래 야영장,민간,대구광역시,수성구,대구 수성구 진밭길 420 (범물동),0,0,0,14,0,,0,0,0,0,0,0,0,0,0,2021.7.15,개별,"전기,장작판매,온수,물놀이장,놀이터,운동시설",산책로,14,0,0,14,"여름물놀이,걷기길",,가능,128.673580377524,35.7981104708905
3068,명파리해변야영장,지자체,강원도,고성군,강원 고성군 현내면 금강산로 819-3,0,21,0,0,0,0.0,0,0,0,0,0,0,21,0,0,2021.7.15,개별,"전기,장작판매,온수,운동시설",해수욕,0,0,0,0,"일출명소,여름물놀이",,불가능,128.401267665158,38.5392827758502
3069,경주 캠핑573,민간,경상북도,경주시,경북 경주시 현곡면 새안현로 507-19,0,6,6,0,0,,0,0,0,0,0,0,0,0,0,2021.11.11,개별,"전기,무선인터넷,장작판매,온수,운동시설","계곡 물놀이,산책로",12,0,0,6,"일출명소,낚시,여름물놀이",,불가능,129.149479259901,35.9157634832091
3070,염전해변캠핑장,지자체,경상북도,울진군,경상북도 울진군 근남면 수산리 76 ,19,8,0,4,0,,0,0,0,0,0,0,8,5,1,2021.7.15,개별,"전기,온수,놀이터","산책로,수상레저,해수욕",20,0,0,4,"일출명소,낚시,여름물놀이",,불가능,129.410018469299,36.9741607957597
3071,월성자연캠핑야영장,민간,경상남도,거창군,경남 거창군 북상면 덕유월성로 1170-19,0,15,2,0,0,,11,7,4,6,7,5,8,2,5,2021.7.15,개별,"전기,장작판매,온수,물놀이장,놀이터,운동시설","계곡 물놀이,산책로",12,1,1,0,여름물놀이,,가능(소형견),127.719861581601,35.7689378416544
3072,백석탄골부리캠핑장,민간,경상북도,청송군,경북 청송군 안덕면 백석탄로 541-21,0,10,0,0,0,,0,0,0,0,0,0,10,0,0,2021.7.15,개별,"전기,온수,놀이터","계곡 물놀이,산책로",10,0,0,0,"여름물놀이,걷기길",,가능(소형견),128.995624316747,36.3495271612644
3073,박달재초록꿈캠핑체험장,민간,충청북도,제천시,충북 제천시 백운면 구학산로 690,11,0,0,0,0,,8,0,0,7,0,0,11,0,0,2021.7.14,개별,"전기,온수,산책로,운동장","계곡 물놀이,산책로",11,0,0,0,걷기길,,불가능,127.992827379666,37.1867903797884
3074,읍내리 75-1 캠핑장,민간,경기도,가평군,경기 가평군 가평읍 물안산길 42-143,17,20,0,0,0,,0,0,0,0,0,0,7,2,8,2021.7.13,개별,"전기,무선인터넷,장작판매,물놀이장,운동시설",어린이놀이시설,8,0,8,0,"일몰명소,낚시",,가능(소형견),127.514073384586,37.8552140627608
3075,바다야영장,민간,전라북도,부안군,전북 부안군 진서면 곰소항길 22-25,19,0,0,0,0,,0,0,0,0,0,0,11,5,3,2021.7.13,개별,"전기,무선인터넷,장작판매,온수,트렘폴린,물놀이장,놀이터,운동시설,마트_편의점","수상레저,해수욕",19,0,0,0,"일몰명소,수상레저,액티비티,여름물놀이","텐트,릴선,화로대,난방기구",불가능,126.602409779688,35.5888625105608
3076,성요셉치유마을 야영장,민간,경상북도,문경시,경북 문경시 가은읍 은성로 796-13,0,0,0,0,0,,0,0,0,0,0,0,0,0,0,2021.7.13,개별,,,0,0,0,0,,,불가능,128.063592101115,36.6340119445567
3077,변산해수욕장 야영장,지자체,전라북도,부안군,전북 부안군 변산면 변산로 2100,0,0,0,0,0,0.0,0,0,0,0,0,0,0,0,0,2021.7.12,개별,,,0,0,0,0,,,불가능,126.530364131378,35.6786820064645
3078,천주봉 캠핑장,민간,경상북도,문경시,경북 문경시 동로면 금천로 2117,0,10,0,0,0,,0,0,0,0,0,0,10,0,0,2021.7.12,개별,"전기,장작판매,온수,물놀이장,놀이터,운동시설","계곡 물놀이,산책로",5,0,0,0,"봄꽃여행,여름물놀이,가을단풍명소,걷기길",,가능,128.312159000988,36.7395735172718
3079,송전리 해수욕장 야영장,지자체,강원도,양양군,강원특별자치도 양양군 손양면 선사유적로 708-7,0,0,0,0,0,0.0,0,0,0,0,0,0,0,0,0,2025.6.27,개별,,,0,0,0,0,,,불가능,128.664140662339,38.0907239783163
3080,잔교리해수욕장 야영장,지자체,강원도,양양군,강원 양양군 현북면 동해대로 1108,0,0,0,0,0,0.0,0,0,0,0,0,0,0,0,0,2025.6.30,개별,,,0,0,0,0,,,불가능,128.741418010665,37.994713142153
3081,힐링스토리,,전라남도,완도군,전남 완도군 신지면 신지로 511,0,0,0,0,0,,0,0,0,0,0,0,0,0,0,2021.7.9,개별,,,0,0,0,0,,,불가능,126.822630631936,34.335181857838
3082,FLOW 11 야영장,민간,경상남도,창녕군,경남 창녕군 길곡면 내외동길 11,0,30,0,0,0,,8,0,0,6,0,0,30,0,0,2021.7.9,개별,"전기,무선인터넷,장작판매,온수,물놀이장,놀이터,운동시설",산책로,15,0,0,0,"여름물놀이,걷기길",,가능(소형견),128.538716829601,35.399600925117
3083,우니메이카 산청점,민간,경상남도,산청군,경남 산청군 시천면 세석길 67,0,6,0,0,0,,0,0,0,0,0,0,3,3,0,2021.7.9,개별,"전기,무선인터넷,장작판매,온수,물놀이장,운동시설","계곡 물놀이,산책로",6,0,0,0,여름물놀이,,가능,127.732336887595,35.2818190603205
3084,백담한계캠핑장,민간,강원도,인제군,강원 인제군 북면 고원통로 107,13,0,0,0,0,0.0,0,0,0,0,0,0,0,0,0,2021.7.8,개별,"전기,무선인터넷,장작판매,운동시설",,0,0,0,0,가을단풍명소,,가능,128.257526599797,38.1491485371943
3085,운악산 글램핑,민간,경기도,포천시,경기 포천시 화현면 화동로432번길 92-131,0,0,17,0,0,,0,0,0,0,0,0,0,0,0,2021.7.7,개별,"전기,무선인터넷,장작판매,온수,트렘폴린,물놀이장,운동시설",계곡 물놀이,0,0,0,0,가을단풍명소,,가능,127.311104600786,37.9013491624623
3086,수원 솔내음 캠핑장,민간,경기도,수원시,경기 수원시 권선구 칠보로 2 (금곡동),0,0,15,15,0,0.0,0,0,0,0,0,0,0,0,0,2021.7.6,개별,"전기,무선인터넷,장작판매,온수,트렘폴린,물놀이장,운동시설,마트_편의점",산책로,0,0,0,0,,,가능,126.938683104546,37.2673666603635
3087,월악파머스캠핑장,민간,충청북도,제천시,충북 제천시 덕산면 월악산로 450-5,17,0,0,0,0,,0,0,0,0,0,0,5,4,3,2021.7.4,개별,"전기,장작판매,온수,운동시설","계곡 물놀이,산책로",9,0,0,0,여름물놀이,,가능,128.138735699066,36.8926494249589
3088,금능해수욕장 야영장,지자체,제주특별자치도,제주시,제주특별자치도 제주시 한림읍 금능길 119-10,40,0,0,0,0,0.0,0,0,0,0,0,0,0,0,0,2025.6.27,개별,"놀이터,운동시설","산책로,해수욕",0,0,0,0,"일몰명소,여름물놀이,걷기길",,가능,126.236205125385,33.3904006277236
3089,노마드 캠프,민간,경기도,남양주시,경기 남양주시 경춘로611번길 11-44 (일패동),0,0,0,0,0,,0,0,0,0,0,0,0,0,0,2021.7.2,개별,,,0,0,0,0,,,불가능,127.176059062892,37.6180752144881
3090,서리실 힐링 가족캠핑장,민간,충청남도,천안시,충남 천안시 동남구 광덕면 서리실길 147,0,17,0,0,0,,0,0,0,0,0,0,6,6,5,2021.7.2,개별,"전기,무선인터넷,장작판매,온수,트렘폴린,물놀이장,놀이터,운동시설,마트_편의점","계곡 물놀이,산책로,낚시",0,0,0,0,"여름물놀이,걷기길","텐트,화로대,난방기구,식기,침낭",가능(소형견),127.087435347987,36.6704112336468
3091,하늘땅카라반,민간,전라북도,무주군,전북 무주군 설천면 구천동로 966-12,0,0,0,6,0,,0,0,0,0,0,0,0,0,0,2021.7.2,개별,"전기,무선인터넷,온수,물놀이장,놀이터","계곡 물놀이,산책로",6,0,0,6,"여름물놀이,겨울눈꽃명소",,가능,127.770606233447,35.9073162985513
3092,장사해수욕장 야영장,지자체,경상북도,영덕군,경북 영덕군 남정면 동해대로 3592,0,0,0,0,0,0.0,0,0,0,0,0,0,0,0,0,2025.6.19,개별,,,0,0,0,0,,,불가능,129.375152121322,36.282449737847
3093,노랑카라반,민간,경상남도,남해군,경남 남해군 이동면 남해대로 1607,0,0,0,12,0,,0,0,0,0,0,0,0,0,0,2021.7.1,개별,"전기,무선인터넷,온수,물놀이장,놀이터,운동시설","산책로,수상레저,낚시,해수욕",13,0,0,13,"일출명소,수상레저,낚시,액티비티,여름물놀이",,가능,127.952371248462,34.7694044824723
3095,포천 글램파크 글램핑 카라반,민간,경기도,포천시,경기 포천시 이동면 화동로 1925-47,0,0,0,0,0,0.0,0,0,0,0,0,0,0,0,0,2018.11.22,개별,,,0,0,0,0,,,불가능,127.364518333317,38.0189834254687
3096,화천드림캠핑장,민간,강원도,화천군,강원 화천군 화천읍 한묵령로 504,13,0,0,0,0,,0,0,0,0,0,0,0,0,0,2021.8.6,개별,"전기,무선인터넷,장작판매,온수","계곡 물놀이,산책로,낚시",10,1,8,0,"일몰명소,여름물놀이","텐트,릴선,화로대,침낭",가능,,
3097,담터오지글램핑,민간,강원도,철원군,강원 철원군 동송읍 담터길 350,1,0,0,0,0,,0,0,0,0,0,0,0,0,0,2021.8.23,개별,"전기,무선인터넷,장작판매,온수","계곡 물놀이,산책로",10,3,2,10,"여름물놀이,가을단풍명소,걷기길",,불가능,127.189676077155,38.1619059560891
3098,메이플글램핑&카라반,민간,경기도,포천시,경기 포천시 이동면 화동로 2236-25,0,0,7,5,0,,0,0,0,0,0,0,0,0,0,2021.8.13,개별,"전기,무선인터넷,장작판매,온수",어린이놀이시설,0,0,0,0,,,가능(소형견),127.374939956444,38.0441791180888
3099,신두57캠핑장,민간,충청남도,태안군,충남 태안군 원북면 신두해변길 201-31,111,0,16,0,0,0.0,0,0,0,0,0,0,102,0,0,2021.8.19,개별,"전기,무선인터넷,장작판매,온수,마트_편의점","산책로,해수욕",85,0,0,16,일몰명소,,가능,126.192061438742,36.8416674377521
3100,민트글램핑,민간,경기도,포천시,경기 포천시 이동면 금강로 5846,0,0,28,0,0,,0,0,0,0,0,0,0,0,0,2021.8.13,개별,"전기,무선인터넷,장작판매,온수","계곡 물놀이,산책로,운동장,수상레저,낚시",100,1,1,30,,,불가능,127.374921601412,38.0531116819684
3101,에프앤에프캠핑,민간,충청북도,제천시,충북 제천시 봉양읍 명암로 635,16,0,0,0,0,,0,0,0,0,0,0,16,0,0,2021.8.17,개별,"전기,장작판매,온수,트렘폴린,물놀이장,놀이터,운동장,운동시설","계곡 물놀이,산책로",8,1,1,5,여름물놀이,,가능,128.147487203203,37.19472600285
3102,카이로스오토야영장,민간,충청북도,충주시,충북 충주시 동량면 미라실로 603,0,29,0,0,0,,0,0,0,0,0,0,29,0,0,2021.8.27,개별,"전기,무선인터넷,장작판매,온수,놀이터,운동시설","계곡 물놀이,산책로",15,0,0,0,"봄꽃여행,가을단풍명소,겨울눈꽃명소",,가능,128.040593217784,37.0091396840093
3103,대둔산 캠핑랜드,민간,충청남도,금산군,충남 금산군 진산면 대둔산로 206,0,0,8,24,0,0.0,0,0,0,0,0,0,0,0,0,2015.8.3,개별,"전기,무선인터넷,온수,물놀이장,놀이터,운동시설","계곡 물놀이,산책로,어린이놀이시설",34,0,0,34,"봄꽃여행,여름물놀이,가을단풍명소,겨울눈꽃명소,걷기길",,가능,127.352882628683,36.130346020756
3104,남해금산오토캠핑장,민간,경상남도,남해군,경남 남해군 상주면 남해대로796번길 54,15,0,0,15,0,,0,0,0,0,0,0,35,0,0,2021.8.10,개별,"전기,무선인터넷,장작판매,놀이터,산책로","계곡 물놀이,산책로,해수욕,청소년체험시설,어린이놀이시설",20,0,0,0,,릴선,불가능,127.983881356637,34.735098669732
3105,알로프랑스,민간,경상북도,김천시,경북 김천시 어모면 은림로 62-11,31,0,0,0,1,,0,0,0,0,0,0,15,17,0,2021.8.2,개별,"전기,무선인터넷,장작판매,온수,트렘폴린,물놀이장,놀이터,산책로,운동장,운동시설,마트_편의점",산책로,20,0,0,0,"여름물놀이,걷기길",,가능,128.127005073568,36.1795214683443
3106,야한 캠핑장,민간,경기도,이천시,경기 이천시 마장면 이섭대천로155번길 100,0,8,0,0,0,,0,0,0,0,0,0,8,0,0,2021.8.2,개별,"전기,무선인터넷,장작판매,온수",산책로,0,0,0,0,,,가능,127.391413857818,37.2200011948329
3107,소노팜,민간,강원도,홍천군,강원 홍천군 서면 개야로 357-32,0,10,0,0,0,,8,0,0,10,0,0,10,0,0,2021.8.2,개별,"전기,무선인터넷,장작판매,온수,운동시설",어린이놀이시설,0,0,0,0,여름물놀이,,불가능,127.640378061119,37.6921803689328
3108,장구도어촌계야영장,지자체,충청남도,태안군,충남 태안군 이원면 꾸지나무길 81-17,0,0,0,0,0,,0,0,0,0,0,0,0,0,0,2022.7.28,개별,,,0,0,0,0,,,불가능,126.293120503863,36.9354891900919
3109,홍천 반딧불캠핑장,민간,강원도,홍천군,강원 홍천군 화촌면 도심리길 181,8,0,0,0,0,0.0,0,0,0,0,0,0,8,0,0,2021.8.3,개별,"전기,무선인터넷,장작판매,온수,운동시설",계곡 물놀이,0,0,0,0,여름물놀이,,불가능,127.896047179249,37.7864807254816
3110,영흥도어울림캠핑장,민간,인천광역시,옹진군,인천 옹진군 영흥면 영흥서로 452-67,18,0,0,0,0,0.0,0,0,0,0,0,0,18,0,0,2021.8.3,개별,"전기,장작판매,온수,물놀이장",해수욕,0,0,0,0,여름물놀이,,불가능,126.455217987685,37.2827112974502
3111,당사현대차오션캠프,지자체,울산광역시,북구,울산 북구  당사동 378-4,20,0,0,0,0,0.0,0,0,0,0,0,0,10,0,0,2021.8.5,개별,"전기,무선인터넷,온수","산책로,수상레저,낚시,해수욕",20,0,0,0,"일출명소,수상레저,낚시,액티비티,여름물놀이",화로대,불가능,129.456756682431,35.5822438570792
3112,파인벨리펜션 글램핑 2호점,민간,경기도,포천시,경기 포천시 화현면 봉화로 382-1,0,0,15,3,0,,0,0,0,0,0,0,0,0,0,2021.8.9,개별,"전기,무선인터넷,장작판매,운동시설",계곡 물놀이,0,0,0,0,가을단풍명소,,가능,127.278347110904,37.8831404112497
3113,숲이야기,민간,강원도,춘천시,강원 춘천시 남산면 서백길 691-77,19,0,0,0,0,,0,0,0,0,0,0,19,0,0,2021.8.9,개별,"전기,무선인터넷,장작판매,온수,물놀이장,운동시설",,0,0,0,0,가을단풍명소,,가능(소형견),127.58869198603,37.799820484891
3114,큰빛내 야영장,민간,경상북도,울진군,경상북도 울진군 금강송면 소광리 127-3 ,17,0,0,0,0,,3,0,0,3_6,0,0,17,0,0,2021.8.11,개별,"전기,온수,놀이터","계곡 물놀이,산책로",9,0,0,0,"여름물놀이,걷기길",,불가능,129.214090180582,37.0246858629184
3115,노마드글램핑,민간,경기도,가평군,경기 가평군 상면 원흥길 46-12,0,0,10,0,0,,0,0,0,0,0,0,0,0,0,2021.8.11,개별,"전기,무선인터넷,장작판매,온수,물놀이장,운동시설",,0,0,0,0,"봄꽃여행,여름물놀이,가을단풍명소",,가능,127.326075082363,37.8187793433301
3116,하얀보트,,제주특별자치도,서귀포시,제주특별자치도 서귀포시 막숙포로 66-1 (법환동),0,0,0,0,0,,0,0,0,0,0,0,0,0,0,2021.8.12,개별,,,0,0,0,0,,,불가능,126.514536586863,33.2355672569167
3117,은하수 관광농원,민간,경상북도,김천시,경북 김천시 부항면 안간1길 760,0,10,0,0,0,,0,0,0,0,0,0,10,0,0,2021.8.12,개별,"전기,무선인터넷,장작판매,온수,물놀이장,놀이터,산책로,운동시설","계곡 물놀이,산책로,낚시,어린이놀이시설",5,1,1,2,여름물놀이,,가능,127.954797434088,36.002971787211
3118,백암온천마을 영농조합법인 야영장,민간,경상북도,울진군,경북 울진군 온정면 온정리 665-2 ,0,0,0,3,0,,0,0,0,0,0,0,0,0,0,2021.8.12,개별,"전기,온수,물놀이장,놀이터,운동장","계곡 물놀이,산책로,수상레저,낚시,해수욕",3,0,0,3,걷기길,,가능,129.34169279068,36.7079688702747
3119,가리벨리캠핑장,민간,강원도,인제군,강원 인제군 인제읍 대목리길 137,30,0,0,0,0,,0,0,0,0,0,0,0,0,0,2021.8.13,개별,"전기,무선인터넷,장작판매",계곡 물놀이,0,0,0,0,"여름물놀이,가을단풍명소",,가능,128.338464184113,38.073135595982
3120,에이미캠핑장,민간,강원도,영월군,강원 영월군 김삿갓면 영월동로 1107-1,25,0,0,0,0,,0,0,0,0,0,0,0,0,0,2021.8.17,개별,"전기,무선인터넷,장작판매,온수,트렘폴린,운동시설,마트_편의점","수상레저,어린이놀이시설",0,0,0,0,"수상레저,봄꽃여행,가을단풍명소",,가능(소형견),128.535347357311,37.1318780990487
3121,캠퍼비치 제1야영장,,강원도,양양군,강원도 양양군 현북면 하광정리 591 ,0,0,0,0,0,,0,0,0,0,0,0,0,0,0,2021.8.19,개별,,,0,0,0,0,,,불가능,128.717585106659,38.0265704812672
3122,비토애글램핑2호점(BITOLUV GLAMPING Season2),민간,경상남도,사천시,경남 사천시 서포면 토끼로 217,0,0,14,0,0,,0,0,0,0,0,0,0,0,0,2021.8.20,개별,"전기,무선인터넷,온수,물놀이장,놀이터,운동시설","산책로,수상레저,낚시,해수욕",14,0,0,14,"일출명소,수상레저,낚시,액티비티,여름물놀이",,불가능,127.9643796271,34.9814699272505
3123,캠핑679,민간,경기도,가평군,경기 가평군 북면 화악산로 162-21,0,15,0,0,0,,0,0,0,0,0,0,3,4,1,2021.8.20,개별,"전기,장작판매,온수",계곡 물놀이,0,0,0,0,여름물놀이,,가능,127.560918335525,37.8966864450177
3124,더모스트 글램핑,민간,경상북도,문경시,경북 문경시 문경읍 문경대로 2259-9,0,0,10,0,0,,0,0,0,0,0,0,0,0,0,2021.8.23,개별,"전기,무선인터넷,온수,물놀이장,놀이터,운동시설","계곡 물놀이,산책로",10,0,0,10,"여름물놀이,걷기길",,가능,128.096035368343,36.7312957811439
3125,젠틀펫 파라다이스,지자체,경상북도,문경시,경북 문경시 문경읍 문경대로 2430,0,0,6,0,0,0.0,0,0,0,0,0,0,0,0,0,2021.8.23,개별,"전기,무선인터넷,온수,놀이터","계곡 물놀이,산책로",6,0,0,6,걷기길,,가능,128.082068909534,36.7423076007606
3126,아이프로방스,민간,충청북도,청주시,충북 청주시 상당구 미원면 남부로 6774,50,0,0,0,0,,0,0,0,0,0,0,50,0,0,2021.8.24,개별,"전기,장작판매,온수,물놀이장,놀이터,운동시설","계곡 물놀이,산책로",30,0,0,0,여름물놀이,,가능,127.679194995545,36.6133644520512
3127,사천 케이블카 자연휴양림,지자체,경상남도,사천시,경남 사천시 실안길 242-45 (실안동),0,0,0,0,0,,0,0,0,0,0,0,0,0,0,2021.8.24,불가,"온수,놀이터",산책로,0,0,0,0,,,불가능,128.05761079768,34.9501689730525
3128,진악산오토캠핑장,민간,충청남도,금산군,충남 금산군 남이면 진악로 138-2,15,0,0,0,0,,0,0,0,0,0,0,15,0,0,2021.8.25,개별,"전기,무선인터넷,장작판매,온수,트렘폴린,물놀이장","계곡 물놀이,산책로",15,0,0,0,여름물놀이,화로대,가능,127.435158560028,36.0571277932656
3129,라라캠핑장,민간,경상북도,경주시,경북 경주시 양남면 서왕길 381-14,0,23,0,0,0,,9,10,7,8,8,10,7,2,2,2021.8.25,개별,"전기,장작판매,온수,놀이터,운동시설","계곡 물놀이,산책로,해수욕",20,0,0,0,걷기길,,불가능,129.396335704984,35.6877236512953
3130,속리산풍경캠핑장,민간,충청북도,보은군,충북 보은군 속리산면 중판1길 24,0,16,0,0,0,0.0,0,0,0,0,0,0,16,0,0,2021.8.25,개별,"전기,장작판매,온수,물놀이장,놀이터,운동시설","계곡 물놀이,산책로,어린이놀이시설",8,0,0,0,"여름물놀이,걷기길",,가능,127.799729027473,36.5132390821306
3131,오색 산새소리캠핑장,민간,강원도,양양군,강원 양양군 서면 설악로 1044,0,0,0,0,0,,0,0,0,0,0,0,0,0,0,2021.8.26,개별,전기,계곡 물놀이,0,0,0,0,"가을단풍명소,겨울눈꽃명소",,가능(소형견),128.465818479203,38.0765112066902
3132,파주캠핑장,민간,경기도,파주시,경기 파주시 탄현면 방촌로628번길 25-45,0,25,0,0,0,,0,0,0,0,0,0,0,0,0,2021.8.30,개별,"전기,무선인터넷,장작판매,온수,트렘폴린,물놀이장,운동시설",,0,0,0,0,,,가능,126.721736739328,37.8021736753028
3133,느티담길 캠핑장,민간,대구광역시,군위군,대구 군위군 산성면 부흥로 362-33,7,0,0,0,0,,0,0,0,0,0,0,1,4,2,2021.8.30,개별,"전기,장작판매,온수,놀이터,운동시설","산책로,낚시,어린이놀이시설",7,0,0,0,걷기길,,가능,128.690403312036,36.1173499939397
3134,이천 인휴 글램핑,민간,경기도,이천시,경기 이천시 모가면 진상미로1385번길 221-6,0,0,15,0,0,,0,0,0,0,0,0,0,0,0,2021.8.30,개별,"전기,무선인터넷,온수,운동시설",,0,0,0,0,봄꽃여행,,가능,127.470533108378,37.172359104572
3135,속리산 시어동 캠핑장,지자체,경상북도,상주시,경북 상주시 화북면 장암리 982-2,14,0,0,0,0,,0,0,0,0,0,0,14,0,0,2021.8.31,개별,"전기,온수,놀이터","계곡 물놀이,산책로",7,0,0,0,걷기길,,가능,127.901710150266,36.5700615584153
3136,바다다 캠핑장,민간,인천광역시,강화군,인천 강화군 화도면 해안남로 2739-36,22,0,0,0,0,,0,0,0,0,0,0,22,0,0,2021.8.31,개별,"전기,무선인터넷,장작판매,온수,운동시설",,0,0,0,0,일몰명소,,불가능,126.379819174819,37.6363316642331
3137,대룡산 오토캠핑장,민간,강원도,홍천군,강원 홍천군 북방면 성동로 1612,19,0,0,0,0,,0,0,0,0,0,0,0,0,0,2021.9.1,개별,"전기,무선인터넷,장작판매,온수,물놀이장,운동시설",계곡 물놀이,2000,1,0,2,,,불가능,127.837529626758,37.8261472321256
3138,무수아취,민간,서울특별시,도봉구,서울 도봉구 도봉로169길 249 (도봉동),0,0,12,0,0,,0,0,0,0,0,0,0,0,0,2021.9.14,공동취사장,"전기,무선인터넷,온수,물놀이장,마트_편의점","계곡 물놀이,산책로,운동장",20,1,0,12,,,불가능,127.033088398837,37.6763900429712
3139,오늘 여기 카라반,민간,경상북도,포항시,경북 포항시 남구 호미곶면 일출로 492,0,0,0,0,0,,0,0,0,0,0,0,0,0,0,2021.9.10,개별,,,0,0,0,0,,,불가능,129.576487809641,36.0328976710075
3140,캠프 올모,민간,경기도,가평군,경기 가평군 설악면 장수로 156-50,0,29,0,0,0,,0,0,0,0,0,0,26,1,2,2021.9.10,개별,"전기,무선인터넷,장작판매,온수,물놀이장,운동시설",계곡 물놀이,0,0,0,0,"여름물놀이,가을단풍명소",,가능,127.510287405723,37.6175394811835
3141,스타밸리캠핑장,민간,충청북도,진천군,충북 진천군 백곡면 배티로 425,0,26,0,0,0,,0,0,0,0,0,0,26,0,0,2021.9.15,공동취사장,"전기,무선인터넷,장작판매,온수,물놀이장,놀이터,운동시설,마트_편의점","계곡 물놀이,산책로",20,1,1,1,"봄꽃여행,여름물놀이,가을단풍명소",,가능,127.340268458432,36.9107444793285
3142,힐사이드인가평 글램핑&캠핑,민간,경기도,가평군,경기 가평군 북면 화악지암길 360,0,32,0,0,0,,0,0,0,0,0,0,0,0,0,2021.9.17,개별,"전기,무선인터넷,장작판매,온수,트렘폴린,물놀이장,놀이터,운동시설",계곡 물놀이,10,0,30,0,,"릴선,화로대",가능,127.581423282718,37.9540956192184
3143,천지 글램핑,민간,전라남도,순천시,전남 순천시 상사면 선동길 112,0,0,20,0,0,,0,0,0,0,0,0,0,0,0,2021.9.15,개별,"전기,무선인터넷,장작판매,온수,물놀이장,놀이터,운동장,운동시설","계곡 물놀이,산책로,강/물놀이",20,0,0,0,"일출명소,봄꽃여행,여름물놀이",화로대,가능,127.436085647787,34.9022265041983
3144,비건캠핑,민간,강원도,영월군,강원 영월군 산솔면 송운길 69,16,0,0,0,0,,0,0,0,0,0,0,0,0,0,2017.12.5,개별,"전기,무선인터넷,장작판매,온수","계곡 물놀이,산책로,운동장,강/물놀이,청소년체험시설,농어촌체험시설",5,1,0,0,"여름물놀이,가을단풍명소,걷기길","텐트,화로대",불가능,128.724463090687,37.1321381194315
3145,캠퍼비치 제2야영장,,강원도,양양군,강원 양양군 현북면 하조대해안길 119,0,0,0,0,0,,0,0,0,0,0,0,0,0,0,2021.9.30,개별,,,0,0,0,0,,,불가능,128.717521171416,38.0277534804076
3146,별밤캠핑장,민간,전라남도,나주시,전남 나주시 다시면 고막원길 20,5,13,4,0,0,,0,0,0,0,0,0,5,9,4,2021.9.30,개별,"전기,장작판매,온수,트렘폴린,물놀이장,놀이터,운동시설,마트_편의점","계곡 물놀이,산책로",22,0,0,0,"봄꽃여행,여름물놀이,가을단풍명소,걷기길","릴선,화로대",가능,126.609258668447,35.0274956317409
3147,동산오토캠핑장,민간,대구광역시,군위군,대구 군위군 부계면 원효길 40,0,23,0,0,0,,0,0,0,0,0,0,6,17,0,2021.9.30,개별,"전기,무선인터넷,장작판매,온수,트렘폴린,물놀이장,놀이터,마트_편의점","계곡 물놀이,산책로",17,0,0,0,여름물놀이,,가능,128.658041908088,36.0485005726979
3148,글램핑포엠,민간,경상북도,청도군,경북 청도군 매전면 능소화길 6,0,0,10,0,0,,0,0,0,0,0,0,0,0,0,2021.9.30,개별,"전기,무선인터넷,온수,물놀이장,놀이터,마트_편의점","계곡 물놀이,산책로",15,0,0,15,"여름물놀이,가을단풍명소,걷기길",,가능,128.852618256973,35.6379463750354
3149,캠프파크 자동차 야영장,민간,경상남도,창녕군,경남 창녕군 유어면 우포1대로 285-1,0,40,0,0,0,,8,0,0,10,0,0,40,0,0,2021.10.1,개별,"전기,무선인터넷,장작판매,온수,트렘폴린,물놀이장,놀이터,운동시설,마트_편의점","계곡 물놀이,산책로",20,3,3,10,"여름물놀이,걷기길",,가능(소형견),128.381637656188,35.5179770766304
3150,다울관광농원 야영장,,충청남도,서산시,충청남도 서산시 성연면 오사리 658-2,0,0,0,0,0,,0,0,0,0,0,0,0,0,0,2021.9.28,개별,,,0,0,0,0,,,불가능,126.418918787992,36.8347625266902
3151,라피,,강원도,평창군,강원 평창군 봉평면 흥정계곡4길 71-70,0,12,15,0,0,,0,0,0,0,0,0,0,0,0,2021.9.17,개별,"전기,무선인터넷,장작판매,온수,운동시설",계곡 물놀이,0,0,0,0,"여름물놀이,가을단풍명소",,불가능,128.313799615437,37.6473439554949
3152,아리아리 숲속의 야영장,민간,강원도,영월군,강원 영월군 주천면 솔치로 240-70,20,0,0,0,0,,0,0,0,0,0,0,20,0,0,2021.9.16,개별,"전기,장작판매,온수,운동시설",,0,0,0,0,"봄꽃여행,가을단풍명소",,가능,128.212647678206,37.2636949775075
3153,느루 캠핑장,민간,충청남도,부여군,충남 부여군 장암면 장암로 67-28,0,36,0,0,0,,0,0,0,0,0,0,1,23,12,2021.9.15,개별,"전기,무선인터넷,장작판매,온수,트렘폴린,물놀이장,놀이터,운동시설,마트_편의점","계곡 물놀이,산책로",20,0,0,0,여름물놀이,,가능,126.887699569601,36.2376217934061
3154,우니메이카 단양점,민간,충청북도,단양군,충북 단양군 가곡면 새밭로 820,0,5,0,0,0,,0,0,0,0,0,0,3,1,1,2021.9.14,개별,"전기,무선인터넷,장작판매,온수,놀이터,운동시설","계곡 물놀이,산책로",5,0,0,0,"여름물놀이,가을단풍명소",,가능,128.457327351785,36.9885563651342
3155,수리바위 캠핑정원,지자체,충청남도,부여군,충남 부여군 외산면 만수리 산25-3,19,0,0,0,0,,0,0,0,0,0,0,19,0,0,2021.9.14,개별,"전기,무선인터넷,온수,물놀이장,놀이터","계곡 물놀이,산책로,어린이놀이시설",19,0,0,0,"여름물놀이,걷기길",,가능(소형견),126.696680984889,36.293107556768
3156,더오창호,민간,충청북도,청주시,충북 청주시 청원구 오창읍 화복로 780-106,0,0,18,0,0,,0,0,0,0,0,0,0,0,0,2021.9.14,개별,"전기,무선인터넷,온수,물놀이장,놀이터,운동시설",산책로,18,0,0,18,"일몰명소,여름물놀이",,불가능,127.41514161975,36.7516400159954
3157,숲속의아침,민간,강원도,영월군,강원 영월군 무릉도원면 무릉법흥로 1115,18,23,0,0,0,,0,0,0,0,0,0,4,5,14,2021.9.3,개별,"전기,무선인터넷,장작판매,온수,트렘폴린,운동시설",계곡 물놀이,18,1,0,2,"여름물놀이,가을단풍명소","텐트,화로대,난방기구",가능,128.277787233221,37.3561953813393
3158,둥지캠핑장,민간,충청북도,보은군,충북 보은군 내북면 회인내북로 874,0,20,0,0,0,,10_5,10_3,10_5,8,8_5,8_2,3,2,2,2021.9.23,개별,"전기,장작판매,온수,물놀이장,놀이터,운동시설","계곡 물놀이,산책로",10,0,0,0,여름물놀이,,불가능,127.648978471623,36.5663155562624
3159,개랭이 오토 캠핑장,민간,전라남도,순천시,전남 순천시 별량면 흑가길 6-1,7,0,5,0,0,0.0,0,0,0,0,0,0,7,0,0,2021.9.11,개별,"전기,무선인터넷,온수",,5,0,0,0,가을단풍명소,,가능(소형견),127.384502764039,34.8864165147841
3160,또바기 스파글램핑,민간,경기도,가평군,경기 가평군 북면 멱골로 205-10,0,0,8,0,0,,0,0,0,0,0,0,0,0,0,2021.9.10,개별,"전기,무선인터넷,장작판매,온수,물놀이장,운동시설",계곡 물놀이,0,0,0,0,가을단풍명소,,가능,127.573152429776,37.9085309108957
3161,에코팜 부설 오토캠핑장,민간,경상북도,포항시,경북 포항시 북구 죽장면 합석길 7,0,32,1,0,0,,0,0,0,0,0,0,27,3,2,2021.9.10,개별,"전기,장작판매,온수,트렘폴린,물놀이장,놀이터,산책로,운동장,운동시설,마트_편의점","계곡 물놀이,산책로",20,0,0,0,"여름물놀이,걷기길","텐트,릴선,화로대,난방기구,식기,침낭",가능(소형견),129.095368998975,36.2026459276729
3162,한별 도그파크,민간,경상남도,함안군,경남 함안군 법수면 이묵골로 135,15,0,0,0,0,,0,0,0,0,0,0,15,0,0,2021.9.10,개별,"전기,무선인터넷,온수,물놀이장,산책로,운동시설,마트_편의점",산책로,9,0,0,0,"봄꽃여행,걷기길","텐트,릴선,화로대,식기,침낭",불가능,128.35625837945,35.3365951301174
3163,양양 솔바다 캠핑장,민간,강원도,양양군,강원도 양양군 손양면 송전리 220-1 ,0,11,0,0,0,,0,0,0,0,0,0,0,0,0,2021.9.9,개별,"전기,무선인터넷","수상레저,해수욕",0,0,0,0,여름물놀이,,가능,128.651429337388,38.0927130130275
3164,곰섬캠핑장 2구역,민간,충청남도,태안군,충남 태안군 남면 곰섬로 500-12,0,11,0,0,0,,0,0,0,0,0,0,11,0,0,2021.9.9,개별,"전기,무선인터넷,장작판매,온수,놀이터,운동시설","산책로,수상레저,낚시,해수욕",0,0,0,0,"일몰명소,여름물놀이",,가능(소형견),126.292112140771,36.5878453485427
3165,노문 야영장,민간,경기도,양평군,경기 양평군 서종면 갈문길 22-17,0,26,0,0,0,0.0,0,0,0,0,0,0,10,13,0,2021.9.6,개별,"전기,장작판매",계곡 물놀이,0,0,0,0,여름물놀이,,가능(소형견),127.433694433062,37.6462611049804
3166,부엉캠핑클럽,민간,전라북도,완주군,전북특별자치도 완주군 운주면 산북신복길 125-62,0,16,0,0,0,0.0,0,0,0,0,0,0,16,0,0,2021.9.6,개별,"전기,무선인터넷,장작판매,온수,물놀이장,놀이터,운동시설","계곡 물놀이,산책로",8,0,0,0,"여름물놀이,걷기길",,가능,127.354752852786,36.0854667077136
3167,구화산바베큐,민간,경상북도,김천시,경북 김천시 구화산길 64-7 (교동),0,0,15,0,0,0.0,0,0,0,0,0,0,0,0,0,2021.9.6,개별,"물놀이장,놀이터,산책로,운동시설",산책로,15,0,0,0,걷기길,,가능,128.102653649855,36.1469714263948
3168,지리산365오토캠핑펜션,민간,경상남도,산청군,경남 산청군 시천면 지리산대로 605,0,17,0,0,0,,0,0,0,0,0,0,5,10,2,2021.9.6,개별,"전기,온수,물놀이장,놀이터,운동시설","계곡 물놀이,산책로,어린이놀이시설",10,0,0,0,여름물놀이,,가능(소형견),127.759072535102,35.2887319986835
3169,땡땡이글램핑,민간,전라남도,장흥군,전남 장흥군 대덕읍 신흥1길 5-55,0,0,10,0,0,0.0,0,0,0,0,0,0,0,0,0,2021.9.3,개별,"전기,장작판매,온수,트렘폴린,물놀이장,놀이터,산책로,운동시설","산책로,운동장,강/물놀이",11,0,0,0,"여름물놀이,걷기길",,가능,126.91015657724,34.505170906318
3170,달빛정원글램핑&카라반,,경기도,가평군,경기 가평군 설악면 유명산길 118,0,0,0,0,0,,0,0,0,0,0,0,0,0,0,2016.9.23,개별,,,0,0,0,0,,,불가능,127.487629762763,37.592511232981
3171,산내956,민간,경상북도,경주시,경북 경주시 산내면 문복로 956,0,0,20,0,0,,0,0,0,0,0,0,0,0,0,2021.10.6,개별,운동시설,"계곡 물놀이,산책로",20,0,0,0,여름물놀이,,가능,129.055041703057,35.7136825608993
3172,포천 라온글램핑&오토캠핑장,민간,경기도,포천시,경기 포천시 영중면 성장로55번길 15,8,0,20,0,0,,0,0,0,0,0,0,0,0,0,2021.10.6,개별,"전기,무선인터넷,장작판매,온수,트렘폴린,물놀이장,마트_편의점","계곡 물놀이,산책로,운동장,낚시",30,3,2,25,여름물놀이,"릴선,식기,침낭",불가능,127.265583130284,38.0282783686467
3173,청라캠핑파크,지자체,인천광역시,서구,인천 서구 첨단서로 190 (청라동),0,38,0,14,0,0.0,0,0,0,0,0,0,38,0,0,2021.10.19,개별,"전기,무선인터넷,장작판매,온수,트렘폴린,놀이터,운동시설,마트_편의점","산책로,운동장,청소년체험시설,농어촌체험시설",41,0,0,0,"봄꽃여행,가을단풍명소,걷기길","릴선,화로대,난방기구,식기",가능,126.615545321332,37.5385441797381
3174,무수캠핑장,민간,경기도,평택시,경기 평택시 포승읍 홍원길 14,24,0,0,0,0,,0,0,0,0,0,0,0,0,0,2021.10.22,개별,"전기,장작판매,온수,산책로,마트_편의점","산책로,해수욕",24,2,24,0,,,불가능,126.868282017737,37.0180414652855
3175,세븐캠핑장,민간,강원도,양양군,강원도 양양군 서면 서림리 353-9,36,0,0,0,0,,0,0,0,0,0,0,0,0,0,2021.7.22,개별,"전기,무선인터넷,장작판매,온수,운동시설",계곡 물놀이,0,0,0,0,여름물놀이,,가능(소형견),128.516359222897,37.9634773450633
3176,아우내관광농원캠핑장,민간,충청남도,천안시,충남 천안시 동남구 병천면 관성3길 267-40,44,0,0,0,4,0.0,0,0,0,0,0,0,12,10,22,2021.10.29,개별,"전기,무선인터넷,장작판매,온수,트렘폴린,물놀이장,놀이터,운동시설,마트_편의점",산책로,28,0,0,0,"여름물놀이,걷기길",난방기구,가능,127.341267254256,36.8215511818368
3177,레끄레오캠핑장,민간,경상북도,청도군,경북 청도군 금천면 선암로 387-116,15,15,0,0,0,0.0,0,0,0,0,0,0,4,3,1,2021.10.19,개별,"전기,무선인터넷,장작판매,온수,놀이터,운동시설","계곡 물놀이,산책로",14,1,1,2,"여름물놀이,걷기길",릴선,가능,128.887573888072,35.6748139896056
3178,아메리카 RV CAMP PARK,민간,경상남도,창녕군,경남 창녕군 유어면 우포1대로 285-1,20,0,0,0,25,0.0,0,0,0,0,0,0,0,0,0,2021.10.1,개별,"전기,무선인터넷,장작판매,온수,물놀이장,산책로,운동장,마트_편의점","산책로,운동장,수상레저,낚시,강/물놀이,청소년체험시설,농어촌체험시설",30,0,0,10,,,가능(소형견),128.381637656188,35.5179770766304
3179,엠와이힐링캠핑장,민간,경상남도,밀양시,경남 밀양시 활성로 296 (활성동),0,49,0,0,0,,0,0,0,0,0,0,49,0,0,2021.10.1,개별,"전기,무선인터넷,장작판매,온수,트렘폴린,운동시설","산책로,어린이놀이시설",25,0,0,0,걷기길,릴선,가능,128.803924501951,35.4892833467107
3180,운악184,민간,경기도,포천시,경기 포천시 화현면 화동로184번길 35-1,0,23,6,0,0,,0,0,0,0,0,0,0,0,0,2021.10.5,개별,"전기,무선인터넷,장작판매,온수,놀이터,운동시설",산책로,0,0,0,0,가을단풍명소,,가능,127.307166781839,37.8838311222005
3181,나무야나무야캠핑장,민간,충청북도,괴산군,충북 괴산군 연풍면 유상길 85,0,60,0,0,0,,0,0,0,0,0,0,34,3,7,2021.10.6,개별,"전기,장작판매,온수,물놀이장,놀이터,산책로,운동장,운동시설,마트_편의점","계곡 물놀이,산책로",40,0,0,0,"여름물놀이,걷기길",,가능(소형견),127.975834984357,36.779924368499
3182,우니메이카 철원점,민간,강원도,철원군,강원 철원군 근남면 하오재로 1656-4,17,0,0,0,0,,0,0,0,0,0,0,0,0,0,2021.10.15,공동취사장,"전기,무선인터넷,장작판매,온수,마트_편의점",,8,0,0,0,,,불가능,127.472332722154,38.2021449661708
3183,꾸네오 캠핑장,민간,전라북도,순창군,전북 순창군 금과면 매우1길 27-1,0,0,0,0,0,0.0,0,0,0,0,0,0,0,0,0,2021.10.7,개별,"전기,무선인터넷,온수,물놀이장,놀이터,마트_편의점",산책로,10,0,0,0,"여름물놀이,걷기길","텐트,화로대,식기",불가능,127.086702161825,35.3416888502074
3184,그리심 글램핑장,민간,충청남도,공주시,충남 공주시 정안면 어물길 395,11,0,0,12,0,,0,0,0,0,0,0,1,1,1,2021.10.7,개별,"전기,장작판매,온수,트렘폴린,물놀이장,놀이터,운동장,운동시설","계곡 물놀이,산책로",13,0,0,12,"여름물놀이,걷기길",,가능,127.14779091135,36.5891498352047
3185,리틀보이 캠핑장,민간,경상남도,고성군,경남 고성군 회화면 옥수길 13,20,0,0,0,0,,0,0,0,0,0,0,3,17,0,2021.10.7,개별,"전기,장작판매,온수,트렘폴린,놀이터,운동시설","계곡 물놀이,산책로",20,0,0,0,,"릴선,화로대",불가능,128.375965685441,35.0982333018706
3186,가평 글램핑 사그막 끝마을,민간,경기도,가평군,경기 가평군 가평읍 석봉로3번길 167-54,0,3,2,2,0,,0,0,0,0,0,0,0,0,0,2021.10.14,개별,"전기,무선인터넷,장작판매,온수,트렘폴린,물놀이장,운동시설,마트_편의점",,0,0,0,0,,,가능,127.49069796769,37.8236269859702
3187,아틴마루 야영장,민간,경기도,양평군,경기 양평군 서종면 가마봉1길 18-27,0,0,0,0,0,,0,0,0,0,0,0,0,0,0,2021.10.15,개별,,,0,0,0,0,,,불가능,127.433913837329,37.6195552761553
3188,보물나라캠프,민간,경기도,연천군,경기 연천군 신서면 동내로 1359,0,39,0,0,0,,0,0,0,0,0,0,39,0,0,2021.10.15,개별,"전기,무선인터넷,장작판매,운동시설",계곡 물놀이,0,0,0,0,가을단풍명소,,불가능,127.142920876053,38.154520147856
3189,별내린캠핑,민간,경기도,남양주시,경기 남양주시 수동면 축령산로 121-1,11,0,0,0,0,,0,0,0,0,0,0,3,8,0,2021.10.15,개별,"전기,무선인터넷,장작판매,온수,물놀이장,운동시설",계곡 물놀이,0,0,0,0,"봄꽃여행,가을단풍명소",,가능,127.305009334086,37.7389187117384
3190,스톤 캠핑장,민간,인천광역시,강화군,인천 강화군 하점면 고려산로377번길 33,0,20,0,0,0,,0,0,0,0,0,0,20,0,0,2021.10.15,개별,"전기,무선인터넷,장작판매,온수,놀이터",,0,0,0,0,일몰명소,,가능(소형견),126.409051055788,37.7540554369731
3191,드론스포츠코리아,민간,전라남도,고흥군,전남 고흥군 금산면 돈청길 25-17,0,24,0,0,0,,0,0,0,0,0,0,18,6,0,2021.10.19,개별,"전기,무선인터넷,장작판매,온수,물놀이장,놀이터,산책로,운동장,마트_편의점","산책로,운동장,낚시,농어촌체험시설",9,3,0,6,"항공레저,낚시,봄꽃여행,여름물놀이",,불가능,127.130047113636,34.4662454301943
3192,평화숲,민간,충청남도,청양군,충남 청양군 대치면 비끼내길 171-6,0,0,10,0,0,,0,0,0,0,0,0,0,0,0,2021.10.20,개별,"전기,무선인터넷,온수,물놀이장,놀이터","계곡 물놀이,산책로,어린이놀이시설",10,0,0,10,"여름물놀이,가을단풍명소,걷기길",,불가능,126.866952657253,36.4787323246234
3193,파주 눌노리 체험 캠핑장,민간,경기도,파주시,경기 파주시 파평면 청송로432번길 99,0,18,0,0,0,,0,0,0,0,0,0,18,0,0,2021.10.20,개별,"전기,무선인터넷,장작판매,온수,트렘폴린,물놀이장,산책로,운동장,운동시설,마트_편의점",청소년체험시설,0,0,0,0,,"텐트,릴선,화로대,난방기구,침낭",불가능,126.865718927461,37.9285105063407
3194,산앤호반 캠핑장,민간,경상남도,합천군,경남 합천군 봉산면 서부로 4107-4,26,0,0,0,0,,0,0,0,0,0,0,9,9,5,2021.10.22,개별,"전기,무선인터넷,장작판매,온수,놀이터,운동시설",,13,0,0,0,걷기길,,가능,128.026746542636,35.6138788603399
3195,몽리치,민간,경기도,가평군,경기 가평군 가평읍 당목가일길 574,0,6,5,0,0,,0,0,0,0,0,0,5,1,0,2021.10.25,개별,"전기,무선인터넷,장작판매,온수,트렘폴린,물놀이장,운동시설",,0,0,0,0,,,불가능,127.571948308678,37.8746401702066
3196,스테이 272,민간,경기도,이천시,경기 이천시 마장면 이장로60번길 34-42,0,15,0,0,0,,0,0,0,0,0,0,10,0,0,2021.10.25,개별,"전기,무선인터넷,장작판매,온수,운동시설",,0,0,0,0,,,가능,127.385575334375,37.260027976913
3197,솔부엉이 캠핑장,민간,충청북도,음성군,충북 음성군 음성읍 음성로826번길 6-9,0,35,0,0,0,,8,0,0,9,0,0,35,0,0,2021.10.27,개별,"전기,무선인터넷,장작판매,온수,트렘폴린,물놀이장,놀이터,산책로,운동장,운동시설,마트_편의점","계곡 물놀이,산책로",20,0,0,0,여름물놀이,,불가능,127.625114865764,36.9727607137891
3198,영흥소장골야영장,,인천광역시,옹진군,인천 옹진군 영흥면 영흥남로191번길 58-76,0,0,0,0,0,,0,0,0,0,0,0,0,0,0,2021.10.28,개별,,,0,0,0,0,,,불가능,126.462287412292,37.2376264243529
3199,사발소캠핑장,민간,강원도,횡성군,강원 횡성군 갑천면 어답산로 60-15,0,10,0,0,0,,0,0,0,0,0,0,10,0,0,2021.10.29,개별,"전기,무선인터넷,장작판매,온수,운동시설",계곡 물놀이,0,0,0,0,여름물놀이,,가능(소형견),128.041507848274,37.5692570048564
3200,영흥도십리포캠핑장,민간,인천광역시,옹진군,인천 옹진군 영흥면 영흥북로 360,16,0,0,0,0,,0,0,0,0,0,0,8,8,0,2021.10.29,개별,"전기,무선인터넷,장작판매,온수,트렘폴린,운동시설",해수욕,0,0,0,0,,,가능(소형견),126.486745942702,37.279682829008
3201,하비비캠핑장,민간,충청북도,충주시,충북 충주시 금가면 오미기2길 120-2,0,16,0,0,0,0.0,0,0,0,0,0,0,16,0,0,2021.10.29,개별,"전기,장작판매,놀이터,운동시설","산책로,어린이놀이시설",8,0,0,0,여름물놀이,,가능,127.885387094412,36.9979251994731
3202,스테리움 제천,민간,충청북도,제천시,충북 제천시 백운면 구학산로 1038,5,10,8,13,0,,0,0,0,0,0,0,0,0,0,2015.6.26,개별,"전기,무선인터넷,장작판매,온수",산책로,0,0,0,0,,화로대,불가능,128.009415320622,37.2046656320831
3203,봄봄캠핑,민간,강원도,춘천시,강원 춘천시 사북면 화악지암길 576,0,12,0,0,0,,0,0,0,0,0,0,12,0,0,2021.11.8,개별,"전기,장작판매,온수,운동시설",계곡 물놀이,13,2,0,0,,,가능,127.620681607393,37.979941779515
3204,산속에 관광농원,민간,경기도,동두천시,경기 동두천시 안흥로26번길 283 (안흥동),24,27,0,0,0,,0,0,0,0,0,0,0,0,0,2021.11.5,개별,"전기,무선인터넷,장작판매,온수,트렘폴린,운동시설","계곡 물놀이,산책로,운동장,청소년체험시설,농어촌체험시설",7,0,0,1,"봄꽃여행,가을단풍명소,겨울눈꽃명소","릴선,화로대,난방기구",가능,127.038079905859,37.9381286655908
3205,화양숲노리캠핑장,민간,충청북도,괴산군,충북 괴산군 청천면 화양로 834-9,29,0,0,0,0,,0,0,0,0,0,0,29,0,0,2021.5.26,개별,"전기,무선인터넷,장작판매,온수,물놀이장,놀이터,운동시설","계곡 물놀이,산책로",30,0,6,0,"여름물놀이,가을단풍명소","릴선,화로대",가능,127.813313551778,36.6808380048951
3206,양양 고인돌 캠핑장,민간,강원도,양양군,강원 양양군 서면 고인돌길 200-49,0,40,0,0,0,0.0,0,0,0,0,0,0,20,10,10,2016.1.12,개별,"전기,무선인터넷,장작판매,온수,운동시설",계곡 물놀이,0,0,0,0,,"텐트,릴선,화로대",가능,128.574197764713,38.0539374809579
3207,정선 도원펜션&캠핑장,민간,강원도,정선군,강원 정선군 북평면 어도원길 165,0,1,0,0,0,,0,0,0,0,0,0,1,0,0,2021.11.12,개별,"전기,무선인터넷,물놀이장",계곡 물놀이,0,0,0,0,"봄꽃여행,가을단풍명소",,가능,128.625517038682,37.4392959086876
3208,영월가자 펜션&캠핑장,민간,강원도,영월군,강원 영월군 무릉도원면 무릉법흥로 852-24,14,6,0,0,0,,6,0,0,8,0,0,18,0,0,2021.7.22,개별,"전기,무선인터넷,장작판매,온수,트렘폴린,물놀이장,놀이터",계곡 물놀이,12,3,1,0,"봄꽃여행,여름물놀이",화로대,가능(소형견),128.282837677679,37.3336001615033
3210,캠프여주,민간,경기도,여주시,경기 여주시 북내면 중암2길 19-22,0,56,0,0,0,,0,0,0,0,0,0,17,15,9,2021.12.1,개별,"전기,무선인터넷,장작판매,온수,트렘폴린,물놀이장,마트_편의점",,0,0,0,0,"낚시,봄꽃여행,가을단풍명소",,가능,127.710360301112,37.3570905476025
3211,솔가람 캠핑장,민간,경상북도,성주군,경상북도 성주군 수륜면 수성리 954-1,0,0,0,0,0,,0,0,0,0,0,0,0,0,0,2021.12.1,개별,산책로,계곡 물놀이,0,0,0,0,,,가능,128.185753915745,35.8733840119182
3212,라이프위드도그,지자체,강원도,인제군,강원 인제군 인제읍 자작나무숲길 1112,38,0,0,0,0,,0,0,0,0,0,0,0,0,0,2021.12.3,개별,"전기,무선인터넷,장작판매,온수,놀이터,산책로,운동시설",,0,0,0,0,,,가능,128.23168805976,38.001558834339
3213,메기의 추억,민간,경기도,가평군,경기 가평군 조종면 연인산로 296,0,6,6,3,0,,0,0,0,0,0,0,0,0,0,2021.11.9,개별,"전기,무선인터넷,장작판매,온수,운동시설",계곡 물놀이,0,0,0,0,"여름물놀이,가을단풍명소",,가능,127.366099799028,37.837881648477
3214,아름다운 농원,민간,경기도,포천시,경기 포천시 영북면 북원로 281,0,0,0,0,0,,0,0,0,0,0,0,0,0,0,2021.11.9,개별,,,0,0,0,0,,,불가능,127.268211477995,38.1223249216835
3215,(가)꽃향기,민간,충청남도,부여군,충남 부여군 은산면 충절로2883번길 13,0,0,0,0,0,,0,0,0,0,0,0,0,0,0,2021.11.9,개별,,,0,0,0,0,,,불가능,126.845714204011,36.3131308945823
3216,자연과힐링,민간,강원도,횡성군,강원 횡성군 청일면 봉덕로299번길 65,0,0,0,5,0,,0,0,0,0,0,0,0,0,0,2021.11.9,개별,"전기,무선인터넷,물놀이장,운동시설",,0,0,0,0,,,가능,128.183498725494,37.5756110784288
3217,황우거주식회사,민간,강원도,횡성군,강원 횡성군 공근면 창봉1길 117,0,0,0,0,0,0.0,0,0,0,0,0,0,0,0,0,2021.11.12,개별,,,0,0,0,0,,,불가능,127.944742710612,37.5639929245782
3218,카캠 그라운드,민간,경기도,가평군,경기 가평군 조종면 세곡로 155,0,8,0,0,0,,0,0,0,0,0,0,0,0,0,2021.11.12,개별,"전기,무선인터넷,장작판매,온수,트렘폴린,물놀이장,운동시설",,0,0,0,0,여름물놀이,,불가능,127.331558924779,37.8341997814993
3219,솔잎향캠핑파크,민간,경기도,시흥시,경기 시흥시 수인로2107번길 52 (조남동),17,0,0,0,0,,0,0,0,0,0,0,0,0,0,2021.11.12,개별,"전기,장작판매,온수",,24,1,1,4,,화로대,불가능,126.871122313818,37.3698456492391
3220,화순돔아일랜드,민간,전라남도,화순군,전남 화순군 화순읍 학포로 2653-20,0,0,7,0,0,,0,0,0,0,0,0,0,0,0,2021.11.18,개별,"전기,온수,놀이터",,7,0,0,0,봄꽃여행,,가능,126.961266612897,35.0462359418202
3221,라라캠핑장,민간,경상남도,양산시,경남 양산시 원동면 원동로 1899-30,45,0,0,0,0,,0,0,0,0,0,0,0,0,0,2021.11.22,개별,"전기,무선인터넷,놀이터,운동시설",계곡 물놀이,0,0,0,0,,,가능(소형견),128.924256864978,35.3959533623042
3222,선장포협동조합,민간,충청남도,아산시,충남 아산시 선장면 선장로 121-10,25,0,0,0,0,,0,0,0,0,0,0,12,13,0,2021.11.22,개별,"전기,온수,놀이터,운동장,운동시설,마트_편의점",산책로,15,0,0,0,,,가능,126.859594500087,36.7903534193632
3223,더존 관광농원,민간,경기도,포천시,경기 포천시 이동면 화동로2076번길 125,0,0,10,20,0,,0,0,0,0,0,0,0,0,0,2021.11.24,개별,"전기,무선인터넷,장작판매,온수,트렘폴린,물놀이장,운동시설,마트_편의점",,31,0,0,29,가을단풍명소,화로대,불가능,127.380395506907,38.0327483927897
3224,물바람캠핑장,민간,전라북도,완주군,전북 완주군 동상면 송광수만로 1079-61,0,0,0,0,0,,0,0,0,0,0,0,0,0,0,2021.11.26,개별,,,0,0,0,0,,,불가능,127.264158669466,35.9291573118
3225,을왕리 솔트 캠핑장,민간,인천광역시,중구,인천 중구 용유서로423번길 38 (을왕동),30,0,0,0,0,,0,0,0,0,0,0,30,0,0,2021.11.26,개별,"전기,무선인터넷,장작판매,온수",해수욕,0,0,0,0,"일몰명소,여름물놀이",,가능(소형견),126.368941302834,37.457653036524
3226,(주)백동소풍가는길,민간,경상남도,양산시,경남 양산시 백동길 128 (소주동),0,0,0,0,0,,0,0,0,0,0,0,0,0,0,2021.11.30,개별,,,0,0,0,0,,,불가능,129.143634073613,35.40429632981
3227,오아시스정글,민간,강원도,인제군,강원 인제군 인제읍 필례약수길 84-10,31,21,0,0,0,,0,0,0,0,0,0,0,0,0,2021.11.30,개별,"전기,무선인터넷,장작판매,온수,트렘폴린,운동시설",계곡 물놀이,0,0,0,0,"봄꽃여행,가을단풍명소",,가능(소형견),128.369073019368,38.0762030738691
3228,사노리숲,민간,경기도,구리시,경기 구리시 동구릉로459번길 181 (사노동),0,0,16,0,0,0.0,0,0,0,0,0,0,0,0,0,2017.5.26,개별,"전기,무선인터넷,장작판매,온수",,12,0,1,16,,,가능(소형견),127.130985079712,37.6363035902413
3229,별밤 글램핑,민간,경기도,가평군,경기도 가평군 상면 원흥리 514-13,0,0,0,0,0,,0,0,0,0,0,0,0,0,0,2017.6.16,개별,,,0,0,0,0,,,불가능,127.320615487051,37.8215120566512
3230,글램인스타,민간,강원도,정선군,강원도 정선군 고한읍 고토일길 210-15,0,0,23,0,0,,0,0,0,0,0,0,0,0,0,2021.12.7,개별,"전기,무선인터넷,장작판매,온수,트렘폴린,물놀이장,운동시설","산책로,운동장",22,3,0,22,"가을단풍명소,겨울눈꽃명소","화로대,난방기구",가능,128.858544822026,37.2185978646293
3231,가평조이글램핑,민간,경기도,가평군,경기 가평군 북면 멱골로272번길 9,8,0,24,0,0,0.0,0,0,0,0,0,0,0,0,0,2016.5.4,개별,"전기,무선인터넷,장작판매,온수",계곡 물놀이,30,0,0,10,,,불가능,127.576674260357,37.9132053105898
3232,둥그레휴양마을,민간,충청북도,보은군,충북 보은군 보은읍 강신1길 3,4,8,3,3,0,,0,0,0,0,0,0,8,0,0,2021.12.17,개별,"전기,무선인터넷,장작판매,온수,물놀이장,놀이터,운동시설",산책로,20,1,0,6,여름물놀이,"릴선,화로대",가능,127.748072952296,36.5003145670104
3233,캠프 고토일,민간,강원도,평창군,강원 평창군 봉평면 흥정계곡3길 60,0,0,0,0,0,,0,0,0,0,0,0,0,0,0,2015.3.17,개별,,,0,0,0,0,,,불가능,128.328674898457,37.6481923094205
3234,"마을야영장, 침산추월",민간,세종특별자치시,세종시,세종특별자치시 조치원읍 침산6길 13,8,0,0,0,0,,0,0,0,0,0,0,4,4,0,2021.11.26,개별,"전기,무선인터넷,장작판매,온수,놀이터,운동장,운동시설",산책로,4,0,1,0,걷기길,"릴선,화로대,난방기구",가능,,
3235,경상북도교육청김천오토캠핑장,지자체,경상북도,김천시,경북 김천시 증산면 증산1로 163,0,15,0,0,0,,0,0,0,0,0,0,0,0,0,2021.12.17,개별,"전기,무선인터넷,온수,마트_편의점","계곡 물놀이,운동장",20,2,0,1,"가을단풍명소,겨울눈꽃명소",,불가능,128.025488785088,35.9097778061554
3236,호두마루글램핑,민간,경상남도,사천시,경남 사천시 서포면 선창부두길 11-2,1,0,4,0,0,,0,0,0,0,0,0,4,0,0,2021.12.23,개별,"전기,무선인터넷,장작판매,온수,물놀이장,놀이터","산책로,낚시,강/물놀이,청소년체험시설",10,0,1,9,"일몰명소,낚시","화로대,난방기구,식기",가능,127.974212643827,34.9910514528303
3237,차밍캠핑,민간,강원도,원주시,강원 원주시 지정면 지정로 1393,0,0,22,2,0,,0,0,0,0,0,0,0,0,0,2021.11.18,개별,"전기,무선인터넷","계곡 물놀이,산책로,강/물놀이",130,0,0,0,여름물놀이,화로대,불가능,127.783615078203,37.3898191710552
3238,관광농원금산만악리수목원오토캠핑장,민간,충청남도,금산군,충남 금산군 진산면 초미동길 138-10,0,25,0,10,0,,0,0,0,0,0,0,8,1,1,2021.12.21,개별,"전기,무선인터넷,장작판매,온수,트렘폴린,물놀이장,놀이터,산책로,마트_편의점","계곡 물놀이,산책로,어린이놀이시설",40,3,0,10,"봄꽃여행,여름물놀이,가을단풍명소,겨울눈꽃명소,걷기길","릴선,화로대",불가능,127.437154186486,36.1546914469672
3239,그린앤블루,민간,경상남도,밀양시,경남 밀양시 단장면 고례로 805-25,13,0,0,0,0,,0,0,0,0,0,0,13,0,0,2021.4.7,개별,"전기,온수,물놀이장","강/물놀이,농어촌체험시설",8,0,0,3,여름물놀이,,불가능,128.923471259537,35.489459980625
3240,카라반파크 아마존,민간,전라북도,완주군,전북 완주군 구이면 항가리 1203,0,0,0,25,0,,0,0,0,0,0,0,0,0,0,2021.12.29,개별,"전기,무선인터넷,장작판매,온수,물놀이장,놀이터,산책로,운동시설,마트_편의점","산책로,강/물놀이",25,0,0,25,"액티비티,여름물놀이,가을단풍명소,겨울눈꽃명소,걷기길","난방기구,식기",불가능,127.108429208506,35.7188673966653
3241,밀양 도깨비방망이 캠핑장,민간,경상남도,밀양시,경남 밀양시 단장면 단장로 1055,42,0,0,0,0,,0,0,0,0,0,0,42,0,0,2021.12.22,개별,"전기,무선인터넷,장작판매,온수,트렘폴린,물놀이장,산책로,운동시설","계곡 물놀이,산책로",20,0,0,0,여름물놀이,,가능,128.849785231812,35.4859448266967
3242,명덕농원,민간,경기도,포천시,경기 포천시 화현면 봉화로 400-134,35,0,8,0,0,,0,0,0,0,0,0,0,0,0,2015.11.24,공동취사장,"전기,무선인터넷,장작판매,온수",,23,1,1,8,,,가능,127.285286779499,37.886251877806
3243,종이섬 야영장,민간,경상남도,통영시,경남 통영시 용남면 지도해안로 303,12,0,0,0,0,,0,0,0,0,0,0,0,0,0,2021.12.3,개별,"전기,온수,산책로",낚시,5,0,0,0,,,불가능,128.472351897569,34.9146102098353
3244,교육가족체험장,지자체,충청남도,부여군,충남 부여군 세도면 인세로 40-3,11,0,0,4,0,,0,0,0,0,0,0,11,0,0,2021.12.31,개별,"전기,온수,산책로",산책로,15,0,0,4,걷기길,,불가능,126.97234332823,36.1673002155762
3245,장흥군 수문랜드 블루투어,민간,전라남도,장흥군,전남 장흥군 안양면 수문용곡로 159-36,0,0,0,0,0,0.0,0,0,0,0,0,0,0,0,0,2021.12.31,개별,,,0,0,0,0,,,불가능,127.030320093016,34.6332120097483
3246,김천실내테니스장 & 김천오토캠핑장,민간,경상북도,김천시,경북 김천시 남면 초곡길 287-97,0,30,0,0,0,,7,4,0,7,6,0,25,5,0,2021.12.31,개별,"전기,장작판매,놀이터,운동시설","산책로,어린이놀이시설",15,0,0,0,걷기길,,가능(소형견),128.177961067959,36.1407785366259
3247,김천맑은계곡 오토캠핑장,민간,경상북도,김천시,경북 김천시 부항면 대야길 307,0,12,0,0,11,,0,0,0,0,0,0,12,0,0,2021.12.31,개별,"장작판매,온수,트렘폴린,놀이터,운동시설,마트_편의점","계곡 물놀이,산책로,어린이놀이시설",12,0,0,0,여름물놀이,"릴선,화로대",가능,127.918428273628,36.0192538154124
3248,우니메이카 당진점,민간,충청남도,당진시,충남 당진시 고대면 온동로 1-21,0,0,0,0,0,,0,0,0,0,0,0,2,1,1,2021.12.30,개별,"전기,장작판매,온수,놀이터,운동시설","산책로,낚시",9,0,0,0,걷기길,,가능,126.550646296066,36.9595438727264
3249,호미곶 고래마을 캠핑장,민간,경상북도,포항시,경북 포항시 남구 호미곶면 고래마을길 8,0,0,0,6,0,,0,0,0,0,0,0,0,0,0,2021.12.29,개별,"전기,놀이터,운동시설","산책로,수상레저,낚시,해수욕",6,0,0,6,"일출명소,여름물놀이,걷기길",,가능,129.577514744648,36.032221590425
3250,그자리 야영장,민간,강원도,홍천군,강원 홍천군 서면 노일로 478,21,0,0,4,4,,0,0,0,0,0,0,0,0,0,2021.12.29,개별,"전기,무선인터넷,장작판매,온수,물놀이장,운동시설,마트_편의점",계곡 물놀이,20,0,0,0,여름물놀이,,불가능,127.723869802643,37.6952997037205
3251,우니메이카 안동점,민간,경상북도,안동시,경북 안동시 남후면 무릉1길 20-46,0,10,0,5,0,,0,0,0,0,0,0,10,0,0,2021.12.29,개별,"전기,무선인터넷,장작판매,온수,물놀이장,놀이터,운동시설,마트_편의점","계곡 물놀이,산책로,낚시,어린이놀이시설",10,0,0,0,"여름물놀이,걷기길","릴선,화로대,난방기구",가능,128.675639520708,36.5205594952944
3252,팔공 쉼터 야영장,민간,대구광역시,군위군,대구 군위군 부계면 원효길 57-1,3,0,0,0,0,,0,0,0,0,0,0,5,0,0,2021.12.28,개별,"전기,물놀이장,놀이터,운동시설","계곡 물놀이,산책로",3,0,0,0,"여름물놀이,걷기길",,가능,128.659460945887,36.0472393861805
3253,우니메이카 밀양점,민간,경상남도,밀양시,경남 밀양시 단장면 국전로 78-5,25,0,10,0,0,,0,0,0,0,0,0,14,6,5,2021.12.28,개별,"전기,장작판매,온수,물놀이장,운동시설,마트_편의점","계곡 물놀이,산책로,어린이놀이시설",18,0,0,0,여름물놀이,화로대,가능,128.87530885015,35.5087378968059
3254,하늘빛,민간,인천광역시,옹진군,인천 옹진군 영흥면 영흥서로 527-26,18,0,0,0,0,,0,0,0,0,0,0,0,0,0,2021.12.27,개별,"전기,장작판매,온수,운동시설",해수욕,0,0,0,0,"일몰명소,여름물놀이,걷기길",,가능,126.45367902738,37.2743777060976
3255,예닮펜션캠핑장,민간,강원도,홍천군,강원 홍천군 두촌면 군유동길64번길 7,0,15,0,0,0,,0,0,0,0,0,0,6,0,0,2021.12.27,개별,"전기,무선인터넷,장작판매,물놀이장,운동시설",계곡 물놀이,0,0,0,0,"여름물놀이,가을단풍명소",,불가능,128.094195568068,37.8600812800228
3256,르쏠레이475카페 야영장,민간,강원도,양구군,강원 양구군 양구읍 박수근로365번길 84-11,0,0,3,1,0,,0,0,0,0,0,0,0,0,0,2021.12.27,개별,"전기,무선인터넷",,0,0,0,0,,,가능,127.97274972365,38.1054863196356
3257,경상북도교육청 포항산누리오토캠핑장,지자체,경상북도,포항시,경북 포항시 북구 죽장면 죽장로 2805,15,0,0,0,0,,0,0,0,0,0,0,10,4,1,2021.12.27,개별,"전기,무선인터넷,온수","계곡 물놀이,산책로,어린이놀이시설",15,0,0,0,"봄꽃여행,여름물놀이,가을단풍명소",,불가능,129.248625308782,36.3030330082317
3258,멍캠프,민간,경기도,남양주시,경기 남양주시 수동면 비룡로1378번길 36-6,0,0,0,0,0,,0,0,0,0,0,0,0,0,0,2021.12.24,개별,,,0,0,0,0,,,불가능,127.286756693082,37.7438690284437
3259,스칼라캠프장,민간,강원도,춘천시,강원 춘천시 남산면 추곡고개길 326-121,0,100,0,0,0,,6,5,0,8,7,0,80,20,0,2021.12.24,개별,"전기,무선인터넷,장작판매,온수,트렘폴린,놀이터,운동시설",,0,0,0,0,여름물놀이,,가능(소형견),127.648595434125,37.7663647139921
3260,가평 리오카라반,민간,경기도,가평군,경기 가평군 상면 축령로70번길 44-61,0,0,0,5,0,,0,0,0,0,0,0,0,0,0,2021.12.23,개별,"전기,무선인터넷,트렘폴린,물놀이장,운동시설",,0,0,0,0,"봄꽃여행,가을단풍명소",,가능,127.362955894285,37.7794989083604
3261,라온힐야영장,민간,경기도,가평군,경기 가평군 상면 수목원로 224,0,7,0,0,0,,0,0,0,0,0,0,7,0,0,2021.12.23,개별,"전기,무선인터넷,물놀이장",산책로,0,0,0,0,"봄꽃여행,가을단풍명소",,가능,127.361113183331,37.7585540868128
3262,해밀터,민간,충청북도,괴산군,충북 괴산군 청천면 이평4길 23-14,6,0,0,0,0,,0,0,0,0,0,0,4,2,0,2021.12.23,개별,"전기,장작판매,온수,물놀이장,놀이터,산책로,운동시설","계곡 물놀이,산책로",3,0,0,0,"여름물놀이,걷기길",,가능(소형견),127.868866460756,36.6632813172751
3263,산마루카라반,민간,경기도,포천시,경기 포천시 이동면 화동로1724번길 124-14,4,0,0,4,0,0.0,0,0,0,0,0,0,0,0,0,2022.6.24,,,,0,0,0,0,,,,127.374712172909,37.9952107818319
3264,위더스글램핑,민간,경상남도,창녕군,경남 창녕군 남지읍 박진로 627,0,0,24,0,0,,0,0,0,0,0,0,0,0,0,2021.12.21,개별,"전기,온수,물놀이장,놀이터,산책로,운동시설","산책로,어린이놀이시설",24,0,0,24,"여름물놀이,걷기길",식기,불가능,128.404349956036,35.4259846672483
3265,윤 오토캠핑장,민간,경기도,양평군,경기 양평군 청운면 비룡1길 49-19,0,25,0,0,0,,0,0,0,0,0,0,0,0,0,2021.12.18,개별,"전기,무선인터넷,장작판매,물놀이장,운동시설","산책로,운동장,강/물놀이",45,0,0,0,,,가능(소형견),127.698718384257,37.5451753127934
3266,강변글램핑,민간,경기도,김포시,경기 김포시 금포로 1202 (운양동),0,0,10,0,0,,0,0,0,0,0,0,0,0,0,2021.12.16,개별,"전기,무선인터넷,장작판매,온수,운동시설",,0,0,0,0,,,불가능,126.700867146257,37.6517051590053
3267,카사비앙카,민간,강원도,삼척시,강원 삼척시 근덕면 부남해변길 15,0,0,3,0,0,,0,0,0,0,0,0,0,0,0,2021.12.16,개별,"전기,장작판매,온수",해수욕,0,0,0,0,여름물놀이,,불가능,129.250377229311,37.3585968070212
3268,단아하우스,민간,강원도,양양군,강원 양양군 강현면 진미로54번길 12-1,0,0,0,0,0,0.0,0,0,0,0,0,0,0,0,0,2021.12.16,개별,,,0,0,0,0,,,불가능,128.60291783777,38.1495741259758
3269,이숲e랜드 야영장,민간,전라남도,장성군,전남 장성군 북하면 병풍로 782-11,0,0,5,0,0,,0,0,0,0,0,0,0,0,0,2021.12.16,개별,"전기,무선인터넷,장작판매,온수,트렘폴린,물놀이장,놀이터,운동장,운동시설","산책로,수영장",5,1,0,5,"일몰명소,가을단풍명소,걷기길",,가능,126.869349109468,35.3253016836435
3270,담터라온글램핑,민간,강원도,철원군,강원 철원군 동송읍 담터길 352,1,0,8,0,0,0.0,0,0,0,0,0,0,0,0,0,2021.12.9,개별,"전기,무선인터넷,장작판매,온수,물놀이장,산책로,운동장,운동시설","계곡 물놀이,산책로,운동장,낚시",9,1,1,0,여름물놀이,"화로대,난방기구",가능,127.189574632265,38.1619917057057
3271,라라플레이스,민간,강원도,양양군,강원도 양양군 현북면 하광정리 608-6 ,1,0,15,0,0,,0,0,0,0,0,0,0,0,0,2021.12.7,개별,"전기,무선인터넷,장작판매","수상레저,해수욕",12,0,0,12,"일출명소,액티비티,여름물놀이",,가능,128.720052904417,38.0238036292428
3272,캐닌힐스(CANINHILLS),민간,강원도,홍천군,강원 홍천군 서면 가일길39번길 35,0,0,0,40,0,0.0,0,0,0,0,0,0,0,0,0,2021.12.6,개별,"전기,무선인터넷,장작판매,온수,트렘폴린,물놀이장,운동시설",,0,0,0,0,,,불가능,127.60562515488,37.6636713609021
3273,폴라데이 캠핑장,민간,경기도,포천시,경기 포천시 군내면 선정비로 58,0,21,0,0,0,,0,0,0,0,0,0,0,0,0,2021.12.5,개별,"전기,무선인터넷,장작판매,온수,물놀이장",낚시,0,0,0,0,낚시,,가능(소형견),127.215514119917,37.8870602294139
3274,남해 힐링국민여가캠핑장,지자체,경상남도,남해군,경남 남해군 이동면 성남로 105,35,0,0,0,0,,0,0,0,0,0,0,24,11,0,2021.12.2,불가,"전기,장작판매,트렘폴린,물놀이장,놀이터,산책로,운동장","산책로,수상레저,낚시,해수욕,청소년체험시설,어린이놀이시설",11,0,0,0,"일출명소,일몰명소,수상레저,낚시,액티비티,봄꽃여행,걷기길",릴선,가능,127.949926934725,34.7786958269199
3275,펫앤트리,민간,충청남도,서산시,충남 서산시 팔봉면 호리중말길 13,0,0,13,0,0,0.0,0,0,0,0,0,0,0,0,0,2022.1.25,개별,"전기,무선인터넷,장작판매,온수,물놀이장,놀이터,산책로,운동시설,마트_편의점",산책로,13,0,0,13,"봄꽃여행,여름물놀이,가을단풍명소",,불가능,126.328454638928,36.841177768621
3276,남한산성 캠핑장,민간,경기도,광주시,경기 광주시 남한산성면 남한산성로 144,30,36,0,0,22,0.0,0,0,0,0,0,0,0,0,0,2022.1.3,개별,"전기,무선인터넷,장작판매,온수,트렘폴린,물놀이장,운동시설",계곡 물놀이,0,0,0,0,"봄꽃여행,가을단풍명소",,가능,127.2350577062,37.4550879390159
3277,선재해림 카라반,민간,인천광역시,옹진군,인천 옹진군 영흥면 선재로226번길 107-34,0,0,0,10,0,0.0,0,0,0,0,0,0,0,0,0,2022.8.5,개별,"전기,무선인터넷,장작판매,온수,물놀이장,운동시설",강/물놀이,0,0,0,0,"일출명소,걷기길",,가능,126.52715953184,37.2529825180276
3278,철원포레스트,민간,강원도,철원군,강원 철원군 갈말읍 순담길 69,3,0,10,0,0,,0,0,0,0,0,0,0,0,0,2022.2.3,개별,"전기,무선인터넷,장작판매,온수,물놀이장,마트_편의점","계곡 물놀이,산책로,강/물놀이",15,1,1,13,,,불가능,127.301233535054,38.1710191135411
3279,매향 오토 캠핑장,,경기도,화성시,경기 화성시 우정읍 궁평항로 81-22,0,0,0,0,0,0.0,0,0,0,0,0,0,0,0,0,2022.1.28,,,,0,0,0,0,,,,126.759206474703,37.0527370993047
3280,거금도 청석 오토캠핑장,지자체,전라남도,고흥군,전남 고흥군 금산면 거금일주로 1883,0,16,0,0,0,0.0,0,0,0,0,0,0,4,12,0,2022.1.27,불가,"전기,온수,놀이터","산책로,낚시,해수욕",8,0,0,0,"일몰명소,여름물놀이,걷기길",,가능,127.218182135746,34.4536259115942
3281,영덕 디아로 글램핑장,민간,경상북도,영덕군,경북 영덕군 영덕읍 영덕대게로 625-168,0,0,3,0,0,0.0,0,0,0,0,0,0,0,0,0,2022.1.26,개별,"전기,무선인터넷,장작판매,온수,물놀이장","산책로,수상레저,낚시,해수욕",3,0,0,3,"일출명소,여름물놀이",,가능,129.414955774259,36.40343537771
3282,쿠 야영장,민간,경상남도,창원시,경남 창원시 마산합포구 구산면 해양관광로 1767,0,0,3,7,0,0.0,0,0,0,0,0,0,0,0,0,2022.1.26,개별,"전기,무선인터넷,장작판매,온수,트렘폴린,물놀이장,놀이터,운동시설",산책로,0,0,0,0,"일몰명소,수상레저,낚시",,가능,128.56555366492,35.0745801679441
3283,공둘 캠핑장(02),민간,충청남도,서천군,충남 서천군 서면 주원로 59,6,0,0,0,0,0.0,0,0,0,0,0,0,6,0,0,2022.1.25,개별,"전기,무선인터넷,장작판매,온수,트렘폴린,운동시설","낚시,해수욕,청소년체험시설",3,0,0,0,걷기길,,가능,126.575479070353,36.159222273812
3284,월명612,민간,경상북도,김천시,경북 김천시 남면 운봉1길 11-39,0,21,0,1,0,0.0,0,0,0,0,0,0,3,3,2,2022.1.25,개별,"전기,무선인터넷,장작판매,온수,물놀이장,운동시설,마트_편의점","산책로,어린이놀이시설",11,0,0,1,"여름물놀이,걷기길",,가능,128.253524115652,36.0555731607524
3285,우리오토캠핑장,민간,경기도,연천군,경기 연천군 연천읍 동내로 304,0,19,0,0,0,0.0,0,0,0,0,0,0,19,0,0,2022.1.25,개별,"전기,장작판매,온수",계곡 물놀이,0,0,0,0,"가을단풍명소,겨울눈꽃명소",,가능,127.111586650732,38.0891867438219
3286,심천치유자연휴양림야영장,민간,충청남도,금산군,충남 금산군 남일면 신동길 239-123,0,136,5,3,0,0.0,0,0,0,0,0,0,30,2,11,2022.1.24,,,"계곡 물놀이,산책로",10,0,0,8,"봄꽃여행,여름물놀이,가을단풍명소,겨울눈꽃명소,걷기길",,가능,127.485808616299,35.9908674943652
3287,배방관광농원,민간,충청남도,아산시,충남 아산시 배방읍 솔치로 17-31,26,0,0,0,0,0.0,0,0,0,0,0,0,8,5,5,2022.1.21,개별,"전기,장작판매,온수,물놀이장,놀이터,운동시설","산책로,운동장,어린이놀이시설",12,2,2,0,"봄꽃여행,여름물놀이",,가능,127.052064339333,36.7460591811561
3288,용소유원지 야영장,민간,경상남도,사천시,경남 사천시 사남면 계양길 132,30,0,0,0,0,0.0,0,0,0,0,0,0,0,0,0,2022.1.21,개별,"전기,무선인터넷",계곡 물놀이,0,0,0,0,,,가능(소형견),128.132511732205,34.9852565412762
3289,일상화 글램핑,민간,충청북도,보은군,충북 보은군 산외면 성암가고로 235-6,0,0,7,0,0,0.0,0,0,0,0,0,0,0,0,0,2022.1.19,개별,"전기,무선인터넷,장작판매,온수,놀이터,운동시설",산책로,7,0,0,7,"봄꽃여행,가을단풍명소",,가능(소형견),127.697763562393,36.5851376905276
3290,트멍 캠핑장,민간,경기도,포천시,경기 포천시 소흘읍 광릉수목원로 932-2,0,0,0,0,0,0.0,0,0,0,0,0,0,0,0,0,2022.1.19,,,,0,0,0,0,,,,127.141592201244,37.7794961368762
3291,호랑이캠핑,민간,경기도,포천시,경기 포천시 영북면 새낭로 919,0,0,13,0,0,0.0,0,0,0,0,0,0,0,0,0,2022.1.19,,"전기,무선인터넷,장작판매,온수,운동시설",,0,0,0,0,가을단풍명소,,가능,127.325121743301,38.0556939740603
3292,금옥골 숲속작은마을,민간,강원도,춘천시,강원 춘천시 동면 금옥1길 28-22,0,5,4,4,0,0.0,0,0,0,0,0,0,0,0,0,2022.1.14,개별,"전기,무선인터넷,장작판매,온수,물놀이장,운동시설",,0,0,0,0,"봄꽃여행,가을단풍명소",,불가능,127.80323346043,37.9153209804502
3293,대장이랜드 농촌체험휴양마을,민간,충청남도,공주시,충남 공주시 계룡면 갑사로 307,0,12,0,0,0,0.0,0,0,0,0,0,0,12,0,0,2022.1.14,개별,"전기,무선인터넷,장작판매,온수,트렘폴린,물놀이장,놀이터,산책로,운동장,운동시설,마트_편의점","계곡 물놀이,산책로",6,0,0,0,"봄꽃여행,여름물놀이,가을단풍명소,겨울눈꽃명소,걷기길",,가능,127.16526096156,36.3687327158351
3294,캠프627,민간,경상남도,산청군,경남 산청군 단성면 호암로1320번길 90-31,0,29,0,0,0,0.0,0,0,0,0,0,0,10,19,0,2022.1.14,개별,"전기,무선인터넷,장작판매,온수,트렘폴린,물놀이장,운동시설",어린이놀이시설,0,0,0,0,"봄꽃여행,여름물놀이","화로대,난방기구",가능,127.917600548437,35.3550454775983
3295,안면도마린오토캠핑장,민간,충청남도,태안군,충남 태안군 안면읍 방포항길 95,0,43,0,0,0,0.0,0,0,0,0,0,0,24,3,16,2022.1.6,개별,"전기,장작판매,온수,놀이터,운동시설","산책로,수상레저,낚시,해수욕,청소년체험시설",25,0,0,0,"일몰명소,수상레저,낚시,액티비티,여름물놀이",,가능(소형견),126.334716811757,36.5051900980887
3296,경상북도교육청 영덕오토캠핑장,지자체,경상북도,영덕군,경북 영덕군 영덕읍 창포길 2-11,0,25,0,0,0,0.0,0,0,0,0,0,0,12,8,5,2022.1.5,개별,"전기,온수","산책로,낚시,해수욕",20,0,0,0,"일출명소,여름물놀이",,불가능,129.427981667706,36.4095938570937
3297,더파인캠핑,민간,경기도,포천시,경기 포천시 소흘읍 죽엽산로 515,0,0,6,0,0,0.0,0,0,0,0,0,0,0,0,0,2022.1.4,개별,"전기,무선인터넷",,0,0,0,0,,,불가능,127.166018366701,37.7884288229791
3298,초리풍경,민간,경기도,파주시,경기 파주시 법원읍 초리골길 180,7,0,0,0,0,0.0,0,0,0,0,0,0,0,0,0,2022.1.3,,,,0,0,0,0,,,,126.891492955675,37.8538896802165
3299,오블리비아테,민간,경기도,가평군,경기 가평군 가평읍 당목가일길 410-68,0,0,0,0,0,,0,0,0,0,0,0,0,0,0,2017.11.17,개별,,,0,0,0,0,,,불가능,127.55654507108,37.8661485872164
3300,진천포레스트캠핑장,민간,충청북도,진천군,충북 진천군 백곡면 백곡로 778,0,44,0,0,0,0.0,0,0,0,0,0,0,4,31,9,2022.2.9,개별,"전기,무선인터넷,장작판매,온수,트렘폴린,물놀이장,운동시설,마트_편의점",산책로,22,0,0,0,"여름물놀이,가을단풍명소",,불가능,127.364419961942,36.8849706209169
3301,더 하루만 캠핑장,민간,충청북도,괴산군,충북 괴산군 청천면 괴산로상신5길 6-10,0,18,0,0,5,0.0,0,0,0,0,0,0,0,0,0,2021.11.26,개별,"전기,무선인터넷,장작판매,온수,물놀이장,산책로,운동장,마트_편의점","계곡 물놀이,산책로,운동장,강/물놀이,농어촌체험시설",18,1,1,5,,"릴선,난방기구",불가능,127.782391606144,36.6345038530209
3302,숲에안기다,민간,경상북도,고령군,경북 고령군 덕곡면 야로덕곡로 483-68,0,22,0,0,0,0.0,0,0,0,0,0,0,22,0,0,2022.2.23,개별,"전기,무선인터넷,장작판매,온수,트렘폴린,물놀이장,놀이터,운동시설,마트_편의점","계곡 물놀이,산책로,청소년체험시설,어린이놀이시설",11,2,0,0,"봄꽃여행,여름물놀이,가을단풍명소,걷기길","릴선,화로대",가능,128.177782058222,35.7718950468586
3303,나정고운모래해변 오토캠핑장,지자체,경상북도,경주시,경북 경주시 감포읍 동해안로 1976,0,41,0,0,0,0.0,0,0,0,0,0,0,40,1,0,2022.2.20,개별,"전기,무선인터넷,온수,놀이터","산책로,수상레저,낚시,해수욕",42,1,0,4,"일출명소,수상레저,낚시,여름물놀이",,가능(소형견),129.490660705295,35.7835746269612
3304,마린힐캠핑장,민간,충청북도,제천시,충북 제천시 수산면 옥순봉로 503-1,0,14,0,0,0,0.0,0,0,0,0,0,0,14,0,0,2022.2.24,개별,"전기,장작판매,온수,물놀이장,놀이터,운동시설","산책로,낚시,어린이놀이시설",8,0,0,0,"봄꽃여행,여름물놀이,가을단풍명소",,가능(소형견),128.223934738013,36.9538742309604
3305,청계호수 자작나무숲 캠핑장,민간,경기도,포천시,경기 포천시 일동면 운악청계로1480번길 22,0,15,0,4,0,0.0,0,0,0,0,0,0,15,0,0,2022.2.23,개별,"전기,무선인터넷,장작판매,온수,물놀이장,운동시설",수상레저,0,0,0,0,"여름물놀이,가을단풍명소,겨울눈꽃명소,걷기길",,가능,127.339725826167,37.9382538065646
3306,모란골관광농원,민간,강원도,인제군,강원 인제군 북면 모란골길 131,0,0,0,0,0,0.0,0,0,0,0,0,0,0,0,0,2022.2.22,,,,0,0,0,0,,,,128.268319790844,38.1424320902259
3307,더빌리지캠핑장,민간,충청남도,태안군,충남 태안군 근흥면 마금로 184,0,0,2,0,0,0.0,0,0,0,0,0,0,0,0,0,2022.2.22,개별,"전기,온수,트렘폴린,물놀이장,놀이터,마트_편의점","산책로,수상레저,낚시,해수욕,청소년체험시설,어린이놀이시설",2,0,0,2,"일몰명소,수상레저,낚시,액티비티,여름물놀이,걷기길",,가능,126.228002780212,36.7490814605777
3308,황토둥지캠핑체험장,민간,충청북도,제천시,충북 제천시 청풍면 비봉5길 45-22,0,0,0,0,0,0.0,0,0,0,0,0,0,0,0,0,2022.2.21,개별,"전기,장작판매,온수,트렘폴린,운동시설,마트_편의점","산책로,수상레저,낚시,어린이놀이시설",8,0,0,3,"수상레저,낚시,액티비티,여름물놀이,가을단풍명소",,가능(소형견),128.133863964146,36.99250332407
3309,휘명빌리지,민간,경상북도,영천시,경북 영천시 신녕면 신화로 120,0,34,0,0,0,0.0,0,0,0,0,0,0,9,7,5,2022.2.21,개별,"전기,무선인터넷,장작판매,온수,트렘폴린,물놀이장,놀이터,산책로,운동장,운동시설,마트_편의점","계곡 물놀이,산책로",20,0,0,0,"봄꽃여행,여름물놀이,가을단풍명소,겨울눈꽃명소,걷기길",,가능(소형견),128.800724617338,36.0459750239407
3310,솔내음캠핑장,민간,충청북도,제천시,충북 제천시 봉양읍 명암로 466-11,0,26,0,0,0,0.0,0,0,0,0,0,0,26,0,0,2022.2.21,개별,"전기,무선인터넷,장작판매,온수,트렘폴린,물놀이장,놀이터,운동시설,마트_편의점","계곡 물놀이,산책로",20,0,0,2,"봄꽃여행,여름물놀이,가을단풍명소",,가능,128.133151330887,37.1880139319886
3311,주원캠핑장,민간,경기도,용인시,경기 용인시 처인구 원삼면 보개원삼로1415번길 11-14,6,0,0,0,0,0.0,0,0,0,0,0,0,6,0,0,2022.2.15,개별,"전기,물놀이장,운동시설",어린이놀이시설,0,0,0,0,,,가능(소형견),127.307418499129,37.1206357866721
3312,리버앤캠프,민간,경기도,연천군,경기 연천군 청산면 백궁길 27,0,5,0,0,0,0.0,0,0,0,0,0,0,5,0,0,2022.2.14,개별,"전기,무선인터넷,장작판매,온수,트렘폴린,물놀이장","산책로,어린이놀이시설",0,0,0,0,"봄꽃여행,여름물놀이",,가능,127.136962919265,38.0260281178947
3313,꽃댕이오토캠핑장,민간,충청북도,제천시,충북 제천시 백운면 화당로2길 176,0,15,0,0,0,0.0,0,0,0,0,0,0,2,13,0,2022.2.11,개별,"전기,무선인터넷,장작판매,온수,트렘폴린,물놀이장,놀이터,운동시설,마트_편의점","계곡 물놀이,산책로",8,0,0,0,"봄꽃여행,여름물놀이,가을단풍명소,겨울눈꽃명소,걷기길","릴선,화로대",가능(소형견),127.992081433145,37.1852426441644
3314,한산도 충무공교실 야영장,민간,경상남도,통영시,경남 통영시 한산면 한산일주로 622,0,14,0,0,0,0.0,0,0,0,0,0,0,13,1,0,2022.3.11,개별,"전기,장작판매,온수,물놀이장,산책로,운동시설","낚시,해수욕",0,0,0,0,여름물놀이,,불가능,128.500952637976,34.7807555075058
3315,준삼형제글램핑,민간,경기도,연천군,경기 연천군 왕징면 왕산로40번길 21,0,0,12,0,0,0.0,0,0,0,0,0,0,0,0,0,2022.2.10,개별,"전기,무선인터넷,장작판매,온수,트렘폴린,물놀이장,운동시설","산책로,운동장",0,0,0,0,봄꽃여행,,가능(소형견),127.01354355921,38.0577920307537
3316,캠프게이트 청평 카라반&캠핑,민간,경기도,가평군,경기 가평군 청평면 호반로 1025-26,0,8,0,12,0,0.0,0,0,0,0,0,0,0,0,0,2022.2.10,,"전기,무선인터넷,장작판매,온수,물놀이장,운동시설","수상레저,어린이놀이시설",0,0,0,0,봄꽃여행,,가능,127.487479161225,37.7124496619524
3317,글램조이(GLAMJOI),민간,인천광역시,강화군,인천 강화군 양도면 해안서로 689,0,0,7,0,0,0.0,0,0,0,0,0,0,0,0,0,2022.2.9,불가,"전기,무선인터넷,물놀이장",,0,0,0,0,일몰명소,,가능,126.389872320509,37.6886469932959
3318,가델관광농원,민간,충청남도,아산시,충남 아산시 신정로 200-116 (초사동),0,66,0,0,0,0.0,0,0,0,0,0,0,24,12,8,2022.2.9,개별,"전기,무선인터넷,장작판매,온수,트렘폴린,물놀이장,놀이터,운동시설,마트_편의점",산책로,0,0,0,0,"여름물놀이,걷기길",,가능(소형견),126.972067090618,36.737992521887
3319,위드독스in포천,민간,경기도,포천시,경기 포천시 관인면 뗏마루길 128-26,0,0,0,0,0,1.0,0,0,0,0,0,0,0,0,0,2022.2.8,개별,덤프스테이션,,0,0,0,0,,,가능,127.252351906759,38.1206960795284
3320,썬오브글램핑,민간,경기도,포천시,경기 포천시 이동면 금강로6263번길 14-2,0,0,0,0,0,0.0,0,0,0,0,0,0,0,0,0,2022.2.4,,,,0,0,0,0,,,,127.389742840418,38.0880425287941
3321,(주)더사칠공 야영장,민간,인천광역시,옹진군,인천 옹진군 영흥면 영흥서로380번길 101-89,0,0,0,0,0,,0,0,0,0,0,0,0,0,0,2016.2.26,개별,,,0,0,0,0,,,불가능,126.469133859435,37.285378408085
3322,캠앤캠아지트,민간,경상남도,밀양시,경남 밀양시 단장면 구천1길 9-16,16,16,0,0,0,0.0,0,0,0,0,0,0,16,0,0,2022.3.10,개별,"전기,무선인터넷,장작판매,온수,운동시설",계곡 물놀이,0,0,0,0,"여름물놀이,가을단풍명소",,가능,128.922844755189,35.5396856508123
3323,해가빛 캠핑장,민간,충청남도,,충남 서천군 서면 갯벌체험로 56-14,0,37,0,0,0,0.0,0,0,0,0,0,0,11,5,5,2022.3.11,개별,"전기,장작판매,온수,트렘폴린,물놀이장,운동시설,마트_편의점","산책로,수상레저,낚시,해수욕,청소년체험시설",18,0,0,17,"일몰명소,수상레저,낚시,액티비티,여름물놀이",,가능,126.549038344518,36.1464190262591
3324,원산도비치캠핑장,민간,충청남도,보령시,충남 보령시 오천면 원산도4길 59,0,14,0,1,0,0.0,0,0,0,0,0,0,3,11,0,2022.3.24,개별,"전기,무선인터넷,장작판매,온수,물놀이장,놀이터","산책로,수상레저,낚시,해수욕,청소년체험시설",8,0,0,1,"일몰명소,수상레저,액티비티,여름물놀이,걷기길",,가능(소형견),126.434337925959,36.3650274566739
3325,여수경도펜션카라반,민간,전라남도,여수시,전남 여수시 대경도5길 25-8 (경호동),0,0,0,5,0,0.0,0,0,0,0,0,0,0,0,0,2022.3.2,개별,"전기,무선인터넷,장작판매,온수,물놀이장,놀이터,운동시설","산책로,수상레저,낚시,해수욕",5,0,0,5,"일몰명소,수상레저,낚시,액티비티,여름물놀이",,가능,127.721612638794,34.7086219495166
3326,양평온누리캠핑장,민간,경기도,양평군,경기 양평군 서종면 갈문길 29-1,0,0,0,0,0,0.0,0,0,0,0,0,0,0,0,0,2022.3.2,,,,0,0,0,0,,,,127.433691633432,37.6472606592108
3327,캠핑808,민간,충청북도,충주시,충북 충주시 동량면 미라실로 689-1,63,60,0,0,0,0.0,7,7,7,10,13,7,32,8,2,2022.7.13,개별,"전기,무선인터넷,장작판매,온수,놀이터,운동시설","산책로,수상레저,낚시",63,2,20,0,"수상레저,낚시,액티비티,여름물놀이,가을단풍명소,걷기길",,가능(소형견),128.048546701559,37.0097946541387
3328,두부삼촌캠프,민간,경기도,파주시,경기 파주시 파평면 청송로652번길 44,0,30,0,0,0,0.0,0,0,0,0,0,0,30,0,0,2022.3.3,개별,"전기,장작판매,온수,운동시설",계곡 물놀이,0,0,0,0,봄꽃여행,,가능,126.88035449284,37.9406839284474
3329,사계오토캠핑장,민간,경상북도,포항시,경북 포항시 남구 구룡포읍 일출로 203-20,0,34,0,0,0,0.0,0,0,0,0,0,0,29,5,0,2022.3.4,개별,"전기,무선인터넷,장작판매,온수,물놀이장,운동시설","산책로,수상레저,낚시,해수욕",16,0,0,0,"일출명소,수상레저,낚시,액티비티,여름물놀이,걷기길",,가능,129.575739111359,36.012397572324
3330,속리산365캠핑장,민간,경상북도,상주시,경북 상주시 화북면 용화로 208-4,0,32,0,0,0,0.0,0,0,0,0,0,0,32,0,0,2022.3.7,개별,"전기,무선인터넷,장작판매,온수,트렘폴린,물놀이장,놀이터,운동시설","계곡 물놀이,산책로,어린이놀이시설",20,0,0,0,,,가능,127.845704589987,36.5956005788941
3331,아린 글램핑,민간,경기도,가평군,경기 가평군 설악면 유명로 2150-14,0,0,5,0,0,0.0,0,0,0,0,0,0,0,0,0,2022.3.7,개별,"전기,무선인터넷,장작판매,온수,물놀이장",계곡 물놀이,0,0,0,0,"여름물놀이,가을단풍명소",,가능,127.459791057453,37.6985525611804
3332,영월 엄둔밸리 계곡캠핑장 ,민간,강원도,영월군,강원 영월군 무릉도원면 엄둔길 145,10,0,0,2,3,,9,8,8,5,6,6,1,1,7,2022.3.8,개별,"전기,무선인터넷,장작판매,온수,트렘폴린,물놀이장,놀이터,산책로,운동장,마트_편의점","계곡 물놀이,산책로,운동장,낚시,강/물놀이,청소년체험시설,농어촌체험시설,어린이놀이시설",20,0,0,0,,,불가능,128.23479355277,37.3098650228863
3333,약초농원 야영장,민간,경상북도,청도군,경북 청도군 운문면 운문로 1074-27,0,40,0,0,0,0.0,0,0,0,0,0,0,14,1,1,2022.3.10,개별,"전기,무선인터넷,장작판매,온수,놀이터,운동시설,마트_편의점","계곡 물놀이,산책로,어린이놀이시설",20,0,0,0,"봄꽃여행,여름물놀이,가을단풍명소,걷기길",,가능,129.005026651942,35.6675834273037
3334,부싯돌 캠핑,민간,충청남도,천안시,충남 천안시 동남구 북면 양곡1길 233-40,5,0,0,0,0,0.0,0,0,0,0,0,0,5,0,0,2022.3.10,,"전기,무선인터넷,장작판매,온수","산책로,농어촌체험시설",3,0,0,0,"봄꽃여행,가을단풍명소,걷기길",,가능(소형견),127.285406370966,36.8524254847909
3335,반가운캠핑장,민간,경상남도,거제시,경상남도 거제시 동부면 구천리 647-8,30,0,0,0,0,0.0,0,0,0,0,0,0,30,0,0,2022.3.11,개별,"전기,무선인터넷,장작판매,온수,트렘폴린,물놀이장,운동시설",계곡 물놀이,0,0,0,0,"봄꽃여행,가을단풍명소",,불가능,128.627073041477,34.7980399985206
3336,포레스트힐링캠프,민간,충청북도,단양군,충북 단양군 가곡면 새밭로 240-1,21,0,0,1,5,0.0,5,0,0,6,0,0,21,0,0,2022.3.11,개별,"전기,장작판매,온수,놀이터,운동시설","계곡 물놀이,산책로,운동장",12,0,0,3,"봄꽃여행,여름물놀이,가을단풍명소,겨울눈꽃명소",,가능,128.405289406318,37.0083295065751
3337,지맨 카라반파크,민간,경기도,안양시,경기 안양시 만안구 예술공원로 213 (석수동),0,0,0,16,0,0.0,0,0,0,0,0,0,0,0,0,2022.3.11,,"전기,무선인터넷,장작판매,온수,트렘폴린,물놀이장,놀이터,운동시설,마트_편의점","계곡 물놀이,산책로,농어촌체험시설",0,0,0,0,"봄꽃여행,여름물놀이,걷기길",,가능,126.929292248024,37.4210706112334
3338,해그라미,민간,전라남도,고흥군,전남 고흥군 금산면 평산길 98,0,9,0,0,0,0.0,0,0,0,0,0,0,8,1,0,2022.3.14,개별,"전기,무선인터넷,온수,트렘폴린,놀이터,운동시설","낚시,해수욕",9,0,0,0,"일몰명소,여름물놀이,걷기길",,가능,127.176888016596,34.4909335720146
3339,힐링 야영장,민간,경기도,가평군,경기도 가평군 조종면 상판리 145-1 ,0,0,0,0,0,,0,0,0,0,0,0,0,0,0,2022.3.15,개별,,,0,0,0,0,,,불가능,127.381548800576,37.9120837980178
3340,캠핑스토리,민간,제주특별자치도,제주시,제주특별자치도 제주시 애월읍 하소로 746,4,21,2,0,0,0.0,0,0,0,0,0,0,21,4,0,2022.3.16,개별,"전기,무선인터넷,장작판매,온수,트렘폴린,운동시설",,0,0,0,0,,,가능(소형견),126.394947578706,33.4175616591591
3341,호노골 캠핑장,민간,경상남도,진주시,경남 진주시 지수면 용봉로 561,0,15,0,0,0,0.0,0,0,0,0,0,0,11,4,0,2022.3.16,개별,"전기,무선인터넷,장작판매,온수,트렘폴린,물놀이장,운동시설",,0,0,0,0,"봄꽃여행,가을단풍명소",,가능,128.227247061816,35.2504885631058
